{
"type": "FeatureCollection",
"name": "22_slr_tic_tur_sign",
"crs": { "type": "name", "properties": { "name": "urn:ogc:def:crs:OGC:1.3:CRS84" } },
"features": [
{ "type": "Feature", "properties": { "osm_id": "15193348", "code": 2701, "fclass": "tourist_info", "name": "Pod Čižmou" }, "geometry": { "type": "Point", "coordinates": [ 20.3550857, 48.8548663 ] } },
{ "type": "Feature", "properties": { "osm_id": "15193522", "code": 2701, "fclass": "tourist_info", "name": null }, "geometry": { "type": "Point", "coordinates": [ 20.3592436, 48.8209931 ] } },
{ "type": "Feature", "properties": { "osm_id": "15196033", "code": 2701, "fclass": "tourist_info", "name": "Roštár, Medený Hámor" }, "geometry": { "type": "Point", "coordinates": [ 20.3556597, 48.6763953 ] } },
{ "type": "Feature", "properties": { "osm_id": "15196149", "code": 2701, "fclass": "tourist_info", "name": "Hrádok, horáreň" }, "geometry": { "type": "Point", "coordinates": [ 20.2961107, 48.6594417 ] } },
{ "type": "Feature", "properties": { "osm_id": "15212176", "code": 2701, "fclass": "tourist_info", "name": "Dedinky" }, "geometry": { "type": "Point", "coordinates": [ 20.3812355, 48.8665477 ] } },
{ "type": "Feature", "properties": { "osm_id": "15232610", "code": 2701, "fclass": "tourist_info", "name": null }, "geometry": { "type": "Point", "coordinates": [ 20.4243612, 48.7165414 ] } },
{ "type": "Feature", "properties": { "osm_id": "26860806", "code": 2422, "fclass": "camp_site", "name": "Dedinky" }, "geometry": { "type": "Point", "coordinates": [ 20.3860872, 48.864282 ] } },
{ "type": "Feature", "properties": { "osm_id": "26860816", "code": 2422, "fclass": "camp_site", "name": "Levocska" }, "geometry": { "type": "Point", "coordinates": [ 20.596944, 49.043611 ] } },
{ "type": "Feature", "properties": { "osm_id": "26860823", "code": 2422, "fclass": "camp_site", "name": "Podlesok" }, "geometry": { "type": "Point", "coordinates": [ 20.3848756, 48.9643462 ] } },
{ "type": "Feature", "properties": { "osm_id": "29063167", "code": 2701, "fclass": "tourist_info", "name": "sedlo Hrádok" }, "geometry": { "type": "Point", "coordinates": [ 20.296156, 48.6490514 ] } },
{ "type": "Feature", "properties": { "osm_id": "30948831", "code": 2501, "fclass": "supermarket", "name": "Tesco Hypermarket" }, "geometry": { "type": "Point", "coordinates": [ 20.267194, 49.0587824 ] } },
{ "type": "Feature", "properties": { "osm_id": "30949421", "code": 2301, "fclass": "restaurant", "name": "Koliba" }, "geometry": { "type": "Point", "coordinates": [ 20.3093757, 49.0606724 ] } },
{ "type": "Feature", "properties": { "osm_id": "33684692", "code": 2701, "fclass": "tourist_info", "name": "Mníšek nad Hnilcom" }, "geometry": { "type": "Point", "coordinates": [ 20.8047082, 48.8042458 ] } },
{ "type": "Feature", "properties": { "osm_id": "35172446", "code": 2721, "fclass": "attraction", "name": "Ochtinská aragonitová jaskyňa" }, "geometry": { "type": "Point", "coordinates": [ 20.309203, 48.6644348 ] } },
{ "type": "Feature", "properties": { "osm_id": "35608661", "code": 2721, "fclass": "attraction", "name": "Dobšinská ľadová jaskyňa" }, "geometry": { "type": "Point", "coordinates": [ 20.3041595, 48.8680767 ] } },
{ "type": "Feature", "properties": { "osm_id": "35608666", "code": 2721, "fclass": "attraction", "name": "Jasovská jaskyňa" }, "geometry": { "type": "Point", "coordinates": [ 20.9772041, 48.6770122 ] } },
{ "type": "Feature", "properties": { "osm_id": "36395628", "code": 2701, "fclass": "tourist_info", "name": "Hlinisko" }, "geometry": { "type": "Point", "coordinates": [ 20.5230791, 48.8605275 ] } },
{ "type": "Feature", "properties": { "osm_id": "36395729", "code": 2701, "fclass": "tourist_info", "name": "Smižany, bus" }, "geometry": { "type": "Point", "coordinates": [ 20.514686, 48.9559926 ] } },
{ "type": "Feature", "properties": { "osm_id": "107685782", "code": 2701, "fclass": "tourist_info", "name": "Dobšinský kopec" }, "geometry": { "type": "Point", "coordinates": [ 20.3770483, 48.8483803 ] } },
{ "type": "Feature", "properties": { "osm_id": "107753837", "code": 2701, "fclass": "tourist_info", "name": "Mlynky" }, "geometry": { "type": "Point", "coordinates": [ 20.4293944, 48.8528874 ] } },
{ "type": "Feature", "properties": { "osm_id": "107852365", "code": 2701, "fclass": "tourist_info", "name": "Hnilec, vlak, bus" }, "geometry": { "type": "Point", "coordinates": [ 20.5003293, 48.8314398 ] } },
{ "type": "Feature", "properties": { "osm_id": "107893449", "code": 2701, "fclass": "tourist_info", "name": "Pod Grajnárom" }, "geometry": { "type": "Point", "coordinates": [ 20.520696, 48.8566397 ] } },
{ "type": "Feature", "properties": { "osm_id": "109967737", "code": 2701, "fclass": "tourist_info", "name": "Ústie Spišského potoka" }, "geometry": { "type": "Point", "coordinates": [ 20.2680733, 48.874247 ] } },
{ "type": "Feature", "properties": { "osm_id": "205139890", "code": 2701, "fclass": "tourist_info", "name": "Kolinovce" }, "geometry": { "type": "Point", "coordinates": [ 20.850411, 48.9283784 ] } },
{ "type": "Feature", "properties": { "osm_id": "206110029", "code": 2701, "fclass": "tourist_info", "name": "Spišský Hrušov" }, "geometry": { "type": "Point", "coordinates": [ 20.7067127, 48.9457565 ] } },
{ "type": "Feature", "properties": { "osm_id": "243747904", "code": 2701, "fclass": "tourist_info", "name": "Malý Zajf" }, "geometry": { "type": "Point", "coordinates": [ 20.3828887, 48.8879002 ] } },
{ "type": "Feature", "properties": { "osm_id": "243747907", "code": 2701, "fclass": "tourist_info", "name": "Veľké a Malé Zajfy" }, "geometry": { "type": "Point", "coordinates": [ 20.3592001, 48.8818887 ] } },
{ "type": "Feature", "properties": { "osm_id": "243747908", "code": 2701, "fclass": "tourist_info", "name": "Stratenská píla" }, "geometry": { "type": "Point", "coordinates": [ 20.3613184, 48.8735468 ] } },
{ "type": "Feature", "properties": { "osm_id": "243747940", "code": 2701, "fclass": "tourist_info", "name": "Zejmarská roklina, ústie" }, "geometry": { "type": "Point", "coordinates": [ 20.4004781, 48.8709588 ] } },
{ "type": "Feature", "properties": { "osm_id": "243852381", "code": 2701, "fclass": "tourist_info", "name": "Tomášovský výhľad" }, "geometry": { "type": "Point", "coordinates": [ 20.4597096, 48.9450576 ] } },
{ "type": "Feature", "properties": { "osm_id": "243852386", "code": 2701, "fclass": "tourist_info", "name": "Trstený potok" }, "geometry": { "type": "Point", "coordinates": [ 20.4410191, 48.9550692 ] } },
{ "type": "Feature", "properties": { "osm_id": "243852475", "code": 2701, "fclass": "tourist_info", "name": "Čingov" }, "geometry": { "type": "Point", "coordinates": [ 20.4820737, 48.9417766 ] } },
{ "type": "Feature", "properties": { "osm_id": "244142186", "code": 2701, "fclass": "tourist_info", "name": "Zlatá Idka" }, "geometry": { "type": "Point", "coordinates": [ 21.0059166, 48.7523058 ] } },
{ "type": "Feature", "properties": { "osm_id": "245430253", "code": 2701, "fclass": "tourist_info", "name": "Lačnovský kaňon - ústie" }, "geometry": { "type": "Point", "coordinates": [ 20.9410026, 49.0533933 ] } },
{ "type": "Feature", "properties": { "osm_id": "245430397", "code": 2731, "fclass": "castle", "name": "Lipovce" }, "geometry": { "type": "Point", "coordinates": [ 20.935392, 49.0572832 ] } },
{ "type": "Feature", "properties": { "osm_id": "247208386", "code": 2701, "fclass": "tourist_info", "name": "Poproč, kaplnka" }, "geometry": { "type": "Point", "coordinates": [ 20.9803697, 48.7143915 ] } },
{ "type": "Feature", "properties": { "osm_id": "254385474", "code": 2501, "fclass": "supermarket", "name": "Lidl" }, "geometry": { "type": "Point", "coordinates": [ 20.2939984, 49.0499622 ] } },
{ "type": "Feature", "properties": { "osm_id": "254459048", "code": 2005, "fclass": "post_office", "name": "Pošta 1" }, "geometry": { "type": "Point", "coordinates": [ 20.2973449, 49.0550522 ] } },
{ "type": "Feature", "properties": { "osm_id": "257740443", "code": 2501, "fclass": "supermarket", "name": "Hypernova" }, "geometry": { "type": "Point", "coordinates": [ 20.5543132, 48.9502135 ] } },
{ "type": "Feature", "properties": { "osm_id": "259194740", "code": 2701, "fclass": "tourist_info", "name": "Spišské Podhradie" }, "geometry": { "type": "Point", "coordinates": [ 20.7516967, 49.0000712 ] } },
{ "type": "Feature", "properties": { "osm_id": "259194759", "code": 2301, "fclass": "restaurant", "name": "Spišský salaš" }, "geometry": { "type": "Point", "coordinates": [ 20.7317917, 49.0066726 ] } },
{ "type": "Feature", "properties": { "osm_id": "259199547", "code": 2701, "fclass": "tourist_info", "name": "Domaňovce" }, "geometry": { "type": "Point", "coordinates": [ 20.6609188, 48.9631724 ] } },
{ "type": "Feature", "properties": { "osm_id": "264059354", "code": 2701, "fclass": "tourist_info", "name": "Golgota" }, "geometry": { "type": "Point", "coordinates": [ 20.9862641, 48.7749448 ] } },
{ "type": "Feature", "properties": { "osm_id": "264199142", "code": 2701, "fclass": "tourist_info", "name": "Krivian, rázcestie" }, "geometry": { "type": "Point", "coordinates": [ 20.3137597, 48.8851806 ] } },
{ "type": "Feature", "properties": { "osm_id": "264200270", "code": 2701, "fclass": "tourist_info", "name": "Hrabušice, Mýto" }, "geometry": { "type": "Point", "coordinates": [ 20.3981701, 48.9715868 ] } },
{ "type": "Feature", "properties": { "osm_id": "264704459", "code": 2701, "fclass": "tourist_info", "name": "Spišská Teplica" }, "geometry": { "type": "Point", "coordinates": [ 20.2489195, 49.0456957 ] } },
{ "type": "Feature", "properties": { "osm_id": "279919211", "code": 2701, "fclass": "tourist_info", "name": "Lačnov, cintorín" }, "geometry": { "type": "Point", "coordinates": [ 20.9264455, 49.0698137 ] } },
{ "type": "Feature", "properties": { "osm_id": "279919293", "code": 2701, "fclass": "tourist_info", "name": "Renčišov" }, "geometry": { "type": "Point", "coordinates": [ 20.9644688, 49.0958909 ] } },
{ "type": "Feature", "properties": { "osm_id": "281266687", "code": 2701, "fclass": "tourist_info", "name": "Píla" }, "geometry": { "type": "Point", "coordinates": [ 20.346558, 48.9433688 ] } },
{ "type": "Feature", "properties": { "osm_id": "283639046", "code": 2701, "fclass": "tourist_info", "name": "Pri Papučarovi" }, "geometry": { "type": "Point", "coordinates": [ 20.8288683, 49.0768964 ] } },
{ "type": "Feature", "properties": { "osm_id": "289511491", "code": 2701, "fclass": "tourist_info", "name": "Spišský Hrad, rázcestie" }, "geometry": { "type": "Point", "coordinates": [ 20.7791633, 48.9987359 ] } },
{ "type": "Feature", "properties": { "osm_id": "289512949", "code": 2701, "fclass": "tourist_info", "name": "Granč - Petrovce" }, "geometry": { "type": "Point", "coordinates": [ 20.8031088, 48.9957029 ] } },
{ "type": "Feature", "properties": { "osm_id": "289515845", "code": 2701, "fclass": "tourist_info", "name": "Beharovce, motel" }, "geometry": { "type": "Point", "coordinates": [ 20.8213573, 49.0076729 ] } },
{ "type": "Feature", "properties": { "osm_id": "289518259", "code": 2701, "fclass": "tourist_info", "name": "Dreveník, kamenný raj" }, "geometry": { "type": "Point", "coordinates": [ 20.7740246, 48.9898311 ] } },
{ "type": "Feature", "properties": { "osm_id": "289518574", "code": 2721, "fclass": "attraction", "name": "Kamenny Raj" }, "geometry": { "type": "Point", "coordinates": [ 20.7748212, 48.98845 ] } },
{ "type": "Feature", "properties": { "osm_id": "289518670", "code": 2701, "fclass": "tourist_info", "name": "Pod Spišským hradom, parkovisko" }, "geometry": { "type": "Point", "coordinates": [ 20.77016, 48.9987605 ] } },
{ "type": "Feature", "properties": { "osm_id": "295138194", "code": 2701, "fclass": "tourist_info", "name": "Klčov" }, "geometry": { "type": "Point", "coordinates": [ 20.667171, 48.998019 ] } },
{ "type": "Feature", "properties": { "osm_id": "295728485", "code": 2002, "fclass": "fire_station", "name": null }, "geometry": { "type": "Point", "coordinates": [ 20.2928966, 49.0533287 ] } },
{ "type": "Feature", "properties": { "osm_id": "302977794", "code": 2701, "fclass": "tourist_info", "name": "Sokol, horáreň" }, "geometry": { "type": "Point", "coordinates": [ 20.3336354, 48.9332736 ] } },
{ "type": "Feature", "properties": { "osm_id": "302977935", "code": 2701, "fclass": "tourist_info", "name": "Malá poľana, rázcestie" }, "geometry": { "type": "Point", "coordinates": [ 20.3852353, 48.9221985 ] } },
{ "type": "Feature", "properties": { "osm_id": "302978010", "code": 2701, "fclass": "tourist_info", "name": "Palc, rázcestie" }, "geometry": { "type": "Point", "coordinates": [ 20.3436462, 48.9349017 ] } },
{ "type": "Feature", "properties": { "osm_id": "302978195", "code": 2304, "fclass": "pub", "name": null }, "geometry": { "type": "Point", "coordinates": [ 20.3461252, 48.9432767 ] } },
{ "type": "Feature", "properties": { "osm_id": "302978220", "code": 2307, "fclass": "biergarten", "name": null }, "geometry": { "type": "Point", "coordinates": [ 20.3473402, 48.9451626 ] } },
{ "type": "Feature", "properties": { "osm_id": "307741415", "code": 2544, "fclass": "furniture_shop", "name": "Jysk" }, "geometry": { "type": "Point", "coordinates": [ 20.2673285, 49.0610993 ] } },
{ "type": "Feature", "properties": { "osm_id": "307755254", "code": 2256, "fclass": "stadium", "name": "Aréna" }, "geometry": { "type": "Point", "coordinates": [ 20.2908218, 49.0464517 ] } },
{ "type": "Feature", "properties": { "osm_id": "308290099", "code": 2701, "fclass": "tourist_info", "name": "Besník" }, "geometry": { "type": "Point", "coordinates": [ 20.2265382, 48.8618788 ] } },
{ "type": "Feature", "properties": { "osm_id": "308444198", "code": 2701, "fclass": "tourist_info", "name": "Prameň Hrona" }, "geometry": { "type": "Point", "coordinates": [ 20.2147907, 48.8580265 ] } },
{ "type": "Feature", "properties": { "osm_id": "308616604", "code": 2421, "fclass": "shelter", "name": null }, "geometry": { "type": "Point", "coordinates": [ 20.2155989, 48.8586464 ] } },
{ "type": "Feature", "properties": { "osm_id": "308616604", "code": 2741, "fclass": "picnic_site", "name": null }, "geometry": { "type": "Point", "coordinates": [ 20.2155989, 48.8586464 ] } },
{ "type": "Feature", "properties": { "osm_id": "309320543", "code": 2592, "fclass": "vending_parking", "name": null }, "geometry": { "type": "Point", "coordinates": [ 20.3054139, 49.055764 ] } },
{ "type": "Feature", "properties": { "osm_id": "309325085", "code": 2602, "fclass": "atm", "name": null }, "geometry": { "type": "Point", "coordinates": [ 20.3000708, 49.0550176 ] } },
{ "type": "Feature", "properties": { "osm_id": "309325142", "code": 2101, "fclass": "pharmacy", "name": "Adus-centrum" }, "geometry": { "type": "Point", "coordinates": [ 20.3022496, 49.0553241 ] } },
{ "type": "Feature", "properties": { "osm_id": "309325160", "code": 2602, "fclass": "atm", "name": null }, "geometry": { "type": "Point", "coordinates": [ 20.2986715, 49.0547352 ] } },
{ "type": "Feature", "properties": { "osm_id": "309325188", "code": 2101, "fclass": "pharmacy", "name": "Benu Lekáreň" }, "geometry": { "type": "Point", "coordinates": [ 20.3037598, 49.0554813 ] } },
{ "type": "Feature", "properties": { "osm_id": "309325189", "code": 2601, "fclass": "bank", "name": "UniCredit bank" }, "geometry": { "type": "Point", "coordinates": [ 20.3011198, 49.0577281 ] } },
{ "type": "Feature", "properties": { "osm_id": "309325190", "code": 2602, "fclass": "atm", "name": null }, "geometry": { "type": "Point", "coordinates": [ 20.3037125, 49.0551209 ] } },
{ "type": "Feature", "properties": { "osm_id": "309325191", "code": 2601, "fclass": "bank", "name": "OTP banka" }, "geometry": { "type": "Point", "coordinates": [ 20.3034716, 49.0548257 ] } },
{ "type": "Feature", "properties": { "osm_id": "309325195", "code": 2601, "fclass": "bank", "name": "Prima banka" }, "geometry": { "type": "Point", "coordinates": [ 20.3016494, 49.0545413 ] } },
{ "type": "Feature", "properties": { "osm_id": "322815270", "code": 2301, "fclass": "restaurant", "name": "Čajovňa Katka" }, "geometry": { "type": "Point", "coordinates": [ 20.9815338, 48.7772055 ] } },
{ "type": "Feature", "properties": { "osm_id": "331846137", "code": 2701, "fclass": "tourist_info", "name": null }, "geometry": { "type": "Point", "coordinates": [ 20.9322786, 48.8489764 ] } },
{ "type": "Feature", "properties": { "osm_id": "331846154", "code": 2701, "fclass": "tourist_info", "name": "Turzov" }, "geometry": { "type": "Point", "coordinates": [ 20.9050769, 48.861113 ] } },
{ "type": "Feature", "properties": { "osm_id": "331847708", "code": 2602, "fclass": "atm", "name": null }, "geometry": { "type": "Point", "coordinates": [ 20.9334236, 48.8518066 ] } },
{ "type": "Feature", "properties": { "osm_id": "331848003", "code": 2731, "fclass": "castle", "name": "Gelnica" }, "geometry": { "type": "Point", "coordinates": [ 20.9310066, 48.8504295 ] } },
{ "type": "Feature", "properties": { "osm_id": "331850075", "code": 2301, "fclass": "restaurant", "name": "Tatran" }, "geometry": { "type": "Point", "coordinates": [ 20.9376827, 48.8533463 ] } },
{ "type": "Feature", "properties": { "osm_id": "331918701", "code": 2256, "fclass": "stadium", "name": null }, "geometry": { "type": "Point", "coordinates": [ 20.9430589, 48.8587225 ] } },
{ "type": "Feature", "properties": { "osm_id": "331925197", "code": 2722, "fclass": "museum", "name": "Banícke múzeum" }, "geometry": { "type": "Point", "coordinates": [ 20.9330838, 48.8513322 ] } },
{ "type": "Feature", "properties": { "osm_id": "331932254", "code": 2001, "fclass": "police", "name": null }, "geometry": { "type": "Point", "coordinates": [ 20.9366295, 48.8553609 ] } },
{ "type": "Feature", "properties": { "osm_id": "334365317", "code": 2012, "fclass": "community_centre", "name": "Centrum voľného času" }, "geometry": { "type": "Point", "coordinates": [ 20.93685, 48.85686 ] } },
{ "type": "Feature", "properties": { "osm_id": "334369565", "code": 2602, "fclass": "atm", "name": null }, "geometry": { "type": "Point", "coordinates": [ 20.933716, 48.8507478 ] } },
{ "type": "Feature", "properties": { "osm_id": "334369566", "code": 2101, "fclass": "pharmacy", "name": null }, "geometry": { "type": "Point", "coordinates": [ 20.9338533, 48.8508726 ] } },
{ "type": "Feature", "properties": { "osm_id": "356430097", "code": 2742, "fclass": "viewpoint", "name": "Strážna veža" }, "geometry": { "type": "Point", "coordinates": [ 20.5330367, 48.6621467 ] } },
{ "type": "Feature", "properties": { "osm_id": "356430097", "code": 2950, "fclass": "tower", "name": "Strážna veža" }, "geometry": { "type": "Point", "coordinates": [ 20.5330367, 48.6621467 ] } },
{ "type": "Feature", "properties": { "osm_id": "356430134", "code": 2724, "fclass": "memorial", "name": "Františka Andrássyová" }, "geometry": { "type": "Point", "coordinates": [ 20.5328172, 48.6620178 ] } },
{ "type": "Feature", "properties": { "osm_id": "356637648", "code": 2701, "fclass": "tourist_info", "name": "Turisticko informačná kancelária" }, "geometry": { "type": "Point", "coordinates": [ 20.5319587, 48.6620404 ] } },
{ "type": "Feature", "properties": { "osm_id": "356637649", "code": 2303, "fclass": "cafe", "name": "Larsen bar" }, "geometry": { "type": "Point", "coordinates": [ 20.5330807, 48.6615179 ] } },
{ "type": "Feature", "properties": { "osm_id": "385053233", "code": 2501, "fclass": "supermarket", "name": "Lidl" }, "geometry": { "type": "Point", "coordinates": [ 20.5810181, 49.0189232 ] } },
{ "type": "Feature", "properties": { "osm_id": "388480871", "code": 2724, "fclass": "memorial", "name": null }, "geometry": { "type": "Point", "coordinates": [ 20.8886286, 48.9216102 ] } },
{ "type": "Feature", "properties": { "osm_id": "388480927", "code": 2701, "fclass": "tourist_info", "name": "Bačov vrch" }, "geometry": { "type": "Point", "coordinates": [ 20.8908543, 48.9112731 ] } },
{ "type": "Feature", "properties": { "osm_id": "388481079", "code": 2701, "fclass": "tourist_info", "name": "Krompachy, ústredná orientácia" }, "geometry": { "type": "Point", "coordinates": [ 20.8750601, 48.9165631 ] } },
{ "type": "Feature", "properties": { "osm_id": "388481092", "code": 2601, "fclass": "bank", "name": "Slovenská sporiteľňa" }, "geometry": { "type": "Point", "coordinates": [ 20.8738915, 48.9150836 ] } },
{ "type": "Feature", "properties": { "osm_id": "388481099", "code": 2304, "fclass": "pub", "name": null }, "geometry": { "type": "Point", "coordinates": [ 20.8737969, 48.9159194 ] } },
{ "type": "Feature", "properties": { "osm_id": "388481101", "code": 2101, "fclass": "pharmacy", "name": "Mestská lekáreň" }, "geometry": { "type": "Point", "coordinates": [ 20.874972, 48.9179976 ] } },
{ "type": "Feature", "properties": { "osm_id": "388481107", "code": 2304, "fclass": "pub", "name": null }, "geometry": { "type": "Point", "coordinates": [ 20.8756579, 48.9210008 ] } },
{ "type": "Feature", "properties": { "osm_id": "388481111", "code": 2303, "fclass": "cafe", "name": "Kaviareň Európa" }, "geometry": { "type": "Point", "coordinates": [ 20.8840535, 48.9206365 ] } },
{ "type": "Feature", "properties": { "osm_id": "388481112", "code": 2511, "fclass": "convenience", "name": "Potraviny" }, "geometry": { "type": "Point", "coordinates": [ 20.8848088, 48.9202923 ] } },
{ "type": "Feature", "properties": { "osm_id": "388481149", "code": 2301, "fclass": "restaurant", "name": "Pizzeria" }, "geometry": { "type": "Point", "coordinates": [ 20.8746116, 48.9113903 ] } },
{ "type": "Feature", "properties": { "osm_id": "388481150", "code": 2304, "fclass": "pub", "name": null }, "geometry": { "type": "Point", "coordinates": [ 20.8753817, 48.911163 ] } },
{ "type": "Feature", "properties": { "osm_id": "388481155", "code": 2701, "fclass": "tourist_info", "name": "Dúbrava" }, "geometry": { "type": "Point", "coordinates": [ 20.9292417, 48.8887848 ] } },
{ "type": "Feature", "properties": { "osm_id": "388481157", "code": 2724, "fclass": "memorial", "name": null }, "geometry": { "type": "Point", "coordinates": [ 21.0111589, 48.8907988 ] } },
{ "type": "Feature", "properties": { "osm_id": "403843376", "code": 2701, "fclass": "tourist_info", "name": "Slatvina" }, "geometry": { "type": "Point", "coordinates": [ 20.8421437, 48.9621254 ] } },
{ "type": "Feature", "properties": { "osm_id": "403843501", "code": 2701, "fclass": "tourist_info", "name": "Lačnovské sedlo" }, "geometry": { "type": "Point", "coordinates": [ 20.9029276, 49.0718777 ] } },
{ "type": "Feature", "properties": { "osm_id": "403843551", "code": 2701, "fclass": "tourist_info", "name": "sedlo Pod hole" }, "geometry": { "type": "Point", "coordinates": [ 20.9121971, 49.0973407 ] } },
{ "type": "Feature", "properties": { "osm_id": "403843564", "code": 2701, "fclass": "tourist_info", "name": "Sedlo Javor" }, "geometry": { "type": "Point", "coordinates": [ 20.9108796, 49.1042935 ] } },
{ "type": "Feature", "properties": { "osm_id": "416352949", "code": 2303, "fclass": "cafe", "name": "Nepálska čajovna" }, "geometry": { "type": "Point", "coordinates": [ 20.6398797, 48.9993756 ] } },
{ "type": "Feature", "properties": { "osm_id": "442087185", "code": 2601, "fclass": "bank", "name": "Slovenská sporiteľňa" }, "geometry": { "type": "Point", "coordinates": [ 20.5309877, 48.6590005 ] } },
{ "type": "Feature", "properties": { "osm_id": "442087222", "code": 2701, "fclass": "tourist_info", "name": "Rožňavské Kúpele" }, "geometry": { "type": "Point", "coordinates": [ 20.5423549, 48.6809078 ] } },
{ "type": "Feature", "properties": { "osm_id": "442087281", "code": 2701, "fclass": "tourist_info", "name": "Chata Volovec" }, "geometry": { "type": "Point", "coordinates": [ 20.5697729, 48.7423396 ] } },
{ "type": "Feature", "properties": { "osm_id": "442087288", "code": 2701, "fclass": "tourist_info", "name": "Skalisko" }, "geometry": { "type": "Point", "coordinates": [ 20.5748349, 48.7445064 ] } },
{ "type": "Feature", "properties": { "osm_id": "442087313", "code": 2421, "fclass": "shelter", "name": null }, "geometry": { "type": "Point", "coordinates": [ 20.5703859, 48.7418624 ] } },
{ "type": "Feature", "properties": { "osm_id": "442087322", "code": 2701, "fclass": "tourist_info", "name": null }, "geometry": { "type": "Point", "coordinates": [ 20.5604053, 48.7527676 ] } },
{ "type": "Feature", "properties": { "osm_id": "442087329", "code": 2701, "fclass": "tourist_info", "name": "Sedlo Volovec" }, "geometry": { "type": "Point", "coordinates": [ 20.5577375, 48.7547267 ] } },
{ "type": "Feature", "properties": { "osm_id": "442087421", "code": 2701, "fclass": "tourist_info", "name": "Pod Hoľou" }, "geometry": { "type": "Point", "coordinates": [ 20.5340692, 48.7873627 ] } },
{ "type": "Feature", "properties": { "osm_id": "442087520", "code": 2701, "fclass": "tourist_info", "name": "Sedlo Súľová" }, "geometry": { "type": "Point", "coordinates": [ 20.4804461, 48.8128173 ] } },
{ "type": "Feature", "properties": { "osm_id": "442087571", "code": 2701, "fclass": "tourist_info", "name": "Pod Stromišom" }, "geometry": { "type": "Point", "coordinates": [ 20.4376924, 48.809892 ] } },
{ "type": "Feature", "properties": { "osm_id": "442093081", "code": 2701, "fclass": "tourist_info", "name": "Sedlo Dobšinský Vrch" }, "geometry": { "type": "Point", "coordinates": [ 20.4174423, 48.842279 ] } },
{ "type": "Feature", "properties": { "osm_id": "442093097", "code": 2701, "fclass": "tourist_info", "name": "Sedlo Kruhová" }, "geometry": { "type": "Point", "coordinates": [ 20.4022336, 48.8453796 ] } },
{ "type": "Feature", "properties": { "osm_id": "442093129", "code": 2701, "fclass": "tourist_info", "name": "Dedinky, zast." }, "geometry": { "type": "Point", "coordinates": [ 20.3825234, 48.8551628 ] } },
{ "type": "Feature", "properties": { "osm_id": "442096148", "code": 2701, "fclass": "tourist_info", "name": "Voniarky" }, "geometry": { "type": "Point", "coordinates": [ 20.3497007, 48.8467231 ] } },
{ "type": "Feature", "properties": { "osm_id": "442096225", "code": 2701, "fclass": "tourist_info", "name": "Nižná Záhrada" }, "geometry": { "type": "Point", "coordinates": [ 20.2881777, 48.8578494 ] } },
{ "type": "Feature", "properties": { "osm_id": "442096275", "code": 2701, "fclass": "tourist_info", "name": "Stará Čuntava" }, "geometry": { "type": "Point", "coordinates": [ 20.2530234, 48.8457963 ] } },
{ "type": "Feature", "properties": { "osm_id": "442116944", "code": 2701, "fclass": "tourist_info", "name": "Pred Čuntavou" }, "geometry": { "type": "Point", "coordinates": [ 20.2458975, 48.8439054 ] } },
{ "type": "Feature", "properties": { "osm_id": "442116949", "code": 2701, "fclass": "tourist_info", "name": "Pod Hanesovou 2" }, "geometry": { "type": "Point", "coordinates": [ 20.3075526, 48.8539175 ] } },
{ "type": "Feature", "properties": { "osm_id": "443404131", "code": 2701, "fclass": "tourist_info", "name": "Štefanovce" }, "geometry": { "type": "Point", "coordinates": [ 20.9747047, 49.0397377 ] } },
{ "type": "Feature", "properties": { "osm_id": "456761711", "code": 2005, "fclass": "post_office", "name": "Pošta 9" }, "geometry": { "type": "Point", "coordinates": [ 20.2834886, 49.0464474 ] } },
{ "type": "Feature", "properties": { "osm_id": "457846730", "code": 2543, "fclass": "doityourself", "name": "OBI" }, "geometry": { "type": "Point", "coordinates": [ 20.2716971, 49.0563247 ] } },
{ "type": "Feature", "properties": { "osm_id": "457846736", "code": 2301, "fclass": "restaurant", "name": "Hostinec U Radika" }, "geometry": { "type": "Point", "coordinates": [ 20.3796272, 48.8667777 ] } },
{ "type": "Feature", "properties": { "osm_id": "457846740", "code": 2007, "fclass": "library", "name": null }, "geometry": { "type": "Point", "coordinates": [ 20.3792354, 48.8670325 ] } },
{ "type": "Feature", "properties": { "osm_id": "457846766", "code": 2082, "fclass": "school", "name": "Základná škola s materskou školou" }, "geometry": { "type": "Point", "coordinates": [ 20.3993936, 48.8697593 ] } },
{ "type": "Feature", "properties": { "osm_id": "457846772", "code": 2742, "fclass": "viewpoint", "name": null }, "geometry": { "type": "Point", "coordinates": [ 20.3777776, 48.8466725 ] } },
{ "type": "Feature", "properties": { "osm_id": "457846773", "code": 2903, "fclass": "drinking_water", "name": null }, "geometry": { "type": "Point", "coordinates": [ 20.3809331, 48.8460693 ] } },
{ "type": "Feature", "properties": { "osm_id": "457846789", "code": 2724, "fclass": "memorial", "name": "Pališov" }, "geometry": { "type": "Point", "coordinates": [ 20.4239211, 48.7167116 ] } },
{ "type": "Feature", "properties": { "osm_id": "457846790", "code": 2511, "fclass": "convenience", "name": "Coop Jednota" }, "geometry": { "type": "Point", "coordinates": [ 20.4328174, 48.7131004 ] } },
{ "type": "Feature", "properties": { "osm_id": "457846803", "code": 2002, "fclass": "fire_station", "name": null }, "geometry": { "type": "Point", "coordinates": [ 20.5068968, 48.7026718 ] } },
{ "type": "Feature", "properties": { "osm_id": "457875148", "code": 2701, "fclass": "tourist_info", "name": "Smižany, Maša" }, "geometry": { "type": "Point", "coordinates": [ 20.5075707, 48.9509252 ] } },
{ "type": "Feature", "properties": { "osm_id": "457875165", "code": 2701, "fclass": "tourist_info", "name": null }, "geometry": { "type": "Point", "coordinates": [ 20.4853723, 48.9445751 ] } },
{ "type": "Feature", "properties": { "osm_id": "457875167", "code": 2301, "fclass": "restaurant", "name": "Lesnica" }, "geometry": { "type": "Point", "coordinates": [ 20.4856813, 48.9446157 ] } },
{ "type": "Feature", "properties": { "osm_id": "457875168", "code": 2302, "fclass": "fast_food", "name": "Bufet Čingov" }, "geometry": { "type": "Point", "coordinates": [ 20.4850458, 48.9450171 ] } },
{ "type": "Feature", "properties": { "osm_id": "457875183", "code": 2701, "fclass": "tourist_info", "name": "Čingov, reštaurácia" }, "geometry": { "type": "Point", "coordinates": [ 20.4840229, 48.940947 ] } },
{ "type": "Feature", "properties": { "osm_id": "457875286", "code": 2701, "fclass": "tourist_info", "name": "Lesnica, ústie" }, "geometry": { "type": "Point", "coordinates": [ 20.4759258, 48.9399848 ] } },
{ "type": "Feature", "properties": { "osm_id": "457875296", "code": 2701, "fclass": "tourist_info", "name": "Biely potok, ústie" }, "geometry": { "type": "Point", "coordinates": [ 20.4557296, 48.9437404 ] } },
{ "type": "Feature", "properties": { "osm_id": "457875369", "code": 2701, "fclass": "tourist_info", "name": "Biely potok, rázcestie" }, "geometry": { "type": "Point", "coordinates": [ 20.4565662, 48.9442959 ] } },
{ "type": "Feature", "properties": { "osm_id": "457875377", "code": 2742, "fclass": "viewpoint", "name": "Tomášovský výhľad" }, "geometry": { "type": "Point", "coordinates": [ 20.4595855, 48.9449836 ] } },
{ "type": "Feature", "properties": { "osm_id": "457875379", "code": 2742, "fclass": "viewpoint", "name": null }, "geometry": { "type": "Point", "coordinates": [ 20.4685852, 48.9414602 ] } },
{ "type": "Feature", "properties": { "osm_id": "457883272", "code": 2701, "fclass": "tourist_info", "name": "Pod Tomášovským Výhľadom" }, "geometry": { "type": "Point", "coordinates": [ 20.4561764, 48.9457699 ] } },
{ "type": "Feature", "properties": { "osm_id": "459986617", "code": 2701, "fclass": "tourist_info", "name": "Spišské Podhradie" }, "geometry": { "type": "Point", "coordinates": [ 20.7555722, 48.997309 ] } },
{ "type": "Feature", "properties": { "osm_id": "459986618", "code": 2701, "fclass": "tourist_info", "name": "Spišské Podhradie, vlak" }, "geometry": { "type": "Point", "coordinates": [ 20.7557659, 48.9961183 ] } },
{ "type": "Feature", "properties": { "osm_id": "461136447", "code": 2701, "fclass": "tourist_info", "name": "Nižné Repaše, odbočka do Torysiek" }, "geometry": { "type": "Point", "coordinates": [ 20.6985229, 49.0823854 ] } },
{ "type": "Feature", "properties": { "osm_id": "464693247", "code": 2701, "fclass": "tourist_info", "name": null }, "geometry": { "type": "Point", "coordinates": [ 20.9378317, 49.0647594 ] } },
{ "type": "Feature", "properties": { "osm_id": "469750352", "code": 2722, "fclass": "museum", "name": "Múzeum Spiša" }, "geometry": { "type": "Point", "coordinates": [ 20.5684877, 48.9445502 ] } },
{ "type": "Feature", "properties": { "osm_id": "469750354", "code": 2904, "fclass": "fountain", "name": null }, "geometry": { "type": "Point", "coordinates": [ 20.5682064, 48.944401 ] } },
{ "type": "Feature", "properties": { "osm_id": "469750885", "code": 2201, "fclass": "theatre", "name": "Spišské divadlo" }, "geometry": { "type": "Point", "coordinates": [ 20.5714114, 48.9429311 ] } },
{ "type": "Feature", "properties": { "osm_id": "469752423", "code": 2101, "fclass": "pharmacy", "name": "Na námestí" }, "geometry": { "type": "Point", "coordinates": [ 20.5697695, 48.9442749 ] } },
{ "type": "Feature", "properties": { "osm_id": "472393412", "code": 2401, "fclass": "hotel", "name": "Grand Hotel Spiš" }, "geometry": { "type": "Point", "coordinates": [ 20.4868314, 48.9466102 ] } },
{ "type": "Feature", "properties": { "osm_id": "472394707", "code": 2701, "fclass": "tourist_info", "name": "Spišské Tomášovce" }, "geometry": { "type": "Point", "coordinates": [ 20.4713008, 48.9609779 ] } },
{ "type": "Feature", "properties": { "osm_id": "472394733", "code": 2701, "fclass": "tourist_info", "name": "Čingov, rázcestie" }, "geometry": { "type": "Point", "coordinates": [ 20.4852244, 48.949215 ] } },
{ "type": "Feature", "properties": { "osm_id": "472646383", "code": 2082, "fclass": "school", "name": "Spojená cirkevná škola" }, "geometry": { "type": "Point", "coordinates": [ 20.2887878, 49.0493131 ] } },
{ "type": "Feature", "properties": { "osm_id": "472646411", "code": 2602, "fclass": "atm", "name": null }, "geometry": { "type": "Point", "coordinates": [ 20.2875812, 49.0443094 ] } },
{ "type": "Feature", "properties": { "osm_id": "473479346", "code": 2701, "fclass": "tourist_info", "name": "Predný Hýľ" }, "geometry": { "type": "Point", "coordinates": [ 20.4210066, 48.8884285 ] } },
{ "type": "Feature", "properties": { "osm_id": "473479358", "code": 2701, "fclass": "tourist_info", "name": "Zadný Hýľ" }, "geometry": { "type": "Point", "coordinates": [ 20.4265572, 48.88886 ] } },
{ "type": "Feature", "properties": { "osm_id": "473479387", "code": 2701, "fclass": "tourist_info", "name": "Chotárna dolka" }, "geometry": { "type": "Point", "coordinates": [ 20.4253187, 48.8797387 ] } },
{ "type": "Feature", "properties": { "osm_id": "473479797", "code": 2701, "fclass": "tourist_info", "name": "Sedlo Čertova Hlava" }, "geometry": { "type": "Point", "coordinates": [ 20.4467649, 48.8834427 ] } },
{ "type": "Feature", "properties": { "osm_id": "473479929", "code": 2701, "fclass": "tourist_info", "name": "Pod Muráňom" }, "geometry": { "type": "Point", "coordinates": [ 20.4789802, 48.8708942 ] } },
{ "type": "Feature", "properties": { "osm_id": "473479969", "code": 2701, "fclass": "tourist_info", "name": "Pod Veľkou Knolou" }, "geometry": { "type": "Point", "coordinates": [ 20.4744826, 48.8650342 ] } },
{ "type": "Feature", "properties": { "osm_id": "473480046", "code": 2701, "fclass": "tourist_info", "name": "Malá Knola" }, "geometry": { "type": "Point", "coordinates": [ 20.4875986, 48.8627366 ] } },
{ "type": "Feature", "properties": { "osm_id": "473480370", "code": 2701, "fclass": "tourist_info", "name": "Havrania Dolina" }, "geometry": { "type": "Point", "coordinates": [ 20.4283204, 48.8621446 ] } },
{ "type": "Feature", "properties": { "osm_id": "473480435", "code": 2511, "fclass": "convenience", "name": null }, "geometry": { "type": "Point", "coordinates": [ 20.411254, 48.8557437 ] } },
{ "type": "Feature", "properties": { "osm_id": "473480436", "code": 2101, "fclass": "pharmacy", "name": null }, "geometry": { "type": "Point", "coordinates": [ 20.4114383, 48.8557437 ] } },
{ "type": "Feature", "properties": { "osm_id": "473480441", "code": 2301, "fclass": "restaurant", "name": "Geravy" }, "geometry": { "type": "Point", "coordinates": [ 20.3962259, 48.8801937 ] } },
{ "type": "Feature", "properties": { "osm_id": "473480441", "code": 2401, "fclass": "hotel", "name": "Geravy" }, "geometry": { "type": "Point", "coordinates": [ 20.3962259, 48.8801937 ] } },
{ "type": "Feature", "properties": { "osm_id": "473480472", "code": 2701, "fclass": "tourist_info", "name": "Hnilec, bus" }, "geometry": { "type": "Point", "coordinates": [ 20.5029448, 48.8432653 ] } },
{ "type": "Feature", "properties": { "osm_id": "473480542", "code": 2701, "fclass": "tourist_info", "name": "Sykavka" }, "geometry": { "type": "Point", "coordinates": [ 20.4673248, 48.8458389 ] } },
{ "type": "Feature", "properties": { "osm_id": "473480603", "code": 2701, "fclass": "tourist_info", "name": "Rakovec" }, "geometry": { "type": "Point", "coordinates": [ 20.433906, 48.8421021 ] } },
{ "type": "Feature", "properties": { "osm_id": "473480812", "code": 2304, "fclass": "pub", "name": null }, "geometry": { "type": "Point", "coordinates": [ 20.5022813, 48.8436723 ] } },
{ "type": "Feature", "properties": { "osm_id": "490248637", "code": 2404, "fclass": "guesthouse", "name": "Vila Pohoda" }, "geometry": { "type": "Point", "coordinates": [ 20.2903593, 49.0529177 ] } },
{ "type": "Feature", "properties": { "osm_id": "490248716", "code": 2404, "fclass": "guesthouse", "name": "Vila Mery" }, "geometry": { "type": "Point", "coordinates": [ 20.291186, 49.0546396 ] } },
{ "type": "Feature", "properties": { "osm_id": "490248775", "code": 2304, "fclass": "pub", "name": "Legenda Pub" }, "geometry": { "type": "Point", "coordinates": [ 20.2871542, 49.0441489 ] } },
{ "type": "Feature", "properties": { "osm_id": "502188172", "code": 2404, "fclass": "guesthouse", "name": null }, "geometry": { "type": "Point", "coordinates": [ 20.8841106, 48.9100546 ] } },
{ "type": "Feature", "properties": { "osm_id": "502188176", "code": 2404, "fclass": "guesthouse", "name": "Askony" }, "geometry": { "type": "Point", "coordinates": [ 20.8823769, 48.9105147 ] } },
{ "type": "Feature", "properties": { "osm_id": "502188237", "code": 2121, "fclass": "dentist", "name": "Súkromná zubná technika" }, "geometry": { "type": "Point", "coordinates": [ 20.877354, 48.9157685 ] } },
{ "type": "Feature", "properties": { "osm_id": "502188387", "code": 2304, "fclass": "pub", "name": "Vyšná Club" }, "geometry": { "type": "Point", "coordinates": [ 20.8742346, 48.9087771 ] } },
{ "type": "Feature", "properties": { "osm_id": "502188532", "code": 2082, "fclass": "school", "name": "Špeciálna základná škola" }, "geometry": { "type": "Point", "coordinates": [ 20.8728884, 48.9136775 ] } },
{ "type": "Feature", "properties": { "osm_id": "502188535", "code": 2101, "fclass": "pharmacy", "name": "Šalvia" }, "geometry": { "type": "Point", "coordinates": [ 20.8735457, 48.9137958 ] } },
{ "type": "Feature", "properties": { "osm_id": "502188538", "code": 2082, "fclass": "school", "name": null }, "geometry": { "type": "Point", "coordinates": [ 20.8722492, 48.9140487 ] } },
{ "type": "Feature", "properties": { "osm_id": "502188541", "code": 2304, "fclass": "pub", "name": "Hostinec Štefan" }, "geometry": { "type": "Point", "coordinates": [ 20.8661964, 48.9106522 ] } },
{ "type": "Feature", "properties": { "osm_id": "503380121", "code": 2501, "fclass": "supermarket", "name": "Coop Jednota" }, "geometry": { "type": "Point", "coordinates": [ 20.753961, 48.9994955 ] } },
{ "type": "Feature", "properties": { "osm_id": "503642955", "code": 2901, "fclass": "toilet", "name": null }, "geometry": { "type": "Point", "coordinates": [ 20.7571334, 48.9970083 ] } },
{ "type": "Feature", "properties": { "osm_id": "503642958", "code": 2101, "fclass": "pharmacy", "name": null }, "geometry": { "type": "Point", "coordinates": [ 20.7537602, 48.9995828 ] } },
{ "type": "Feature", "properties": { "osm_id": "503642961", "code": 2404, "fclass": "guesthouse", "name": "Pacák" }, "geometry": { "type": "Point", "coordinates": [ 20.7526061, 48.9996759 ] } },
{ "type": "Feature", "properties": { "osm_id": "503642973", "code": 2082, "fclass": "school", "name": "Základná umelecká škola" }, "geometry": { "type": "Point", "coordinates": [ 20.7543727, 49.0002359 ] } },
{ "type": "Feature", "properties": { "osm_id": "503642977", "code": 2602, "fclass": "atm", "name": null }, "geometry": { "type": "Point", "coordinates": [ 20.7535762, 48.9996709 ] } },
{ "type": "Feature", "properties": { "osm_id": "503642980", "code": 2007, "fclass": "library", "name": "Mestská knižnica" }, "geometry": { "type": "Point", "coordinates": [ 20.7521924, 48.9996616 ] } },
{ "type": "Feature", "properties": { "osm_id": "503642983", "code": 2701, "fclass": "tourist_info", "name": "TIC" }, "geometry": { "type": "Point", "coordinates": [ 20.7523636, 48.9996896 ] } },
{ "type": "Feature", "properties": { "osm_id": "503642988", "code": 2101, "fclass": "pharmacy", "name": "Zdravie" }, "geometry": { "type": "Point", "coordinates": [ 20.7518571, 48.9996042 ] } },
{ "type": "Feature", "properties": { "osm_id": "503656267", "code": 2501, "fclass": "supermarket", "name": "Bala" }, "geometry": { "type": "Point", "coordinates": [ 20.7519449, 49.0005483 ] } },
{ "type": "Feature", "properties": { "osm_id": "503672782", "code": 2303, "fclass": "cafe", "name": "Imperio" }, "geometry": { "type": "Point", "coordinates": [ 20.7524125, 49.0003365 ] } },
{ "type": "Feature", "properties": { "osm_id": "503672785", "code": 2501, "fclass": "supermarket", "name": "Milk agro" }, "geometry": { "type": "Point", "coordinates": [ 20.7521693, 49.0004236 ] } },
{ "type": "Feature", "properties": { "osm_id": "503673747", "code": 2203, "fclass": "cinema", "name": "Slovan" }, "geometry": { "type": "Point", "coordinates": [ 20.7515991, 49.0003357 ] } },
{ "type": "Feature", "properties": { "osm_id": "503673748", "code": 2004, "fclass": "post_box", "name": null }, "geometry": { "type": "Point", "coordinates": [ 20.751663, 49.0002609 ] } },
{ "type": "Feature", "properties": { "osm_id": "503673750", "code": 2006, "fclass": "telephone", "name": null }, "geometry": { "type": "Point", "coordinates": [ 20.7516401, 49.0002118 ] } },
{ "type": "Feature", "properties": { "osm_id": "503675059", "code": 2501, "fclass": "supermarket", "name": "P&P" }, "geometry": { "type": "Point", "coordinates": [ 20.7525545, 49.0006876 ] } },
{ "type": "Feature", "properties": { "osm_id": "503675060", "code": 2501, "fclass": "supermarket", "name": "Bala" }, "geometry": { "type": "Point", "coordinates": [ 20.7527513, 49.0009813 ] } },
{ "type": "Feature", "properties": { "osm_id": "503675061", "code": 2301, "fclass": "restaurant", "name": "U kastelána" }, "geometry": { "type": "Point", "coordinates": [ 20.7527552, 49.001113 ] } },
{ "type": "Feature", "properties": { "osm_id": "503677547", "code": 2301, "fclass": "restaurant", "name": "Pod hradom" }, "geometry": { "type": "Point", "coordinates": [ 20.7548361, 49.0006583 ] } },
{ "type": "Feature", "properties": { "osm_id": "503894742", "code": 2561, "fclass": "hairdresser", "name": null }, "geometry": { "type": "Point", "coordinates": [ 20.8735687, 48.9138776 ] } },
{ "type": "Feature", "properties": { "osm_id": "504556365", "code": 2723, "fclass": "monument", "name": "mjr. Ing. Marián Katuška" }, "geometry": { "type": "Point", "coordinates": [ 20.5148824, 48.8577806 ] } },
{ "type": "Feature", "properties": { "osm_id": "504735532", "code": 2701, "fclass": "tourist_info", "name": null }, "geometry": { "type": "Point", "coordinates": [ 20.3858915, 48.9649443 ] } },
{ "type": "Feature", "properties": { "osm_id": "504750965", "code": 2701, "fclass": "tourist_info", "name": "Pod Kláštoriskom" }, "geometry": { "type": "Point", "coordinates": [ 20.4099628, 48.9491235 ] } },
{ "type": "Feature", "properties": { "osm_id": "504929387", "code": 2701, "fclass": "tourist_info", "name": "Bindtianska cesta" }, "geometry": { "type": "Point", "coordinates": [ 20.5636667, 48.8687086 ] } },
{ "type": "Feature", "properties": { "osm_id": "519520132", "code": 2082, "fclass": "school", "name": null }, "geometry": { "type": "Point", "coordinates": [ 20.3817278, 48.9903034 ] } },
{ "type": "Feature", "properties": { "osm_id": "539456692", "code": 2724, "fclass": "memorial", "name": null }, "geometry": { "type": "Point", "coordinates": [ 20.8736313, 48.9117661 ] } },
{ "type": "Feature", "properties": { "osm_id": "560927450", "code": 2602, "fclass": "atm", "name": null }, "geometry": { "type": "Point", "coordinates": [ 20.2483844, 49.0686964 ] } },
{ "type": "Feature", "properties": { "osm_id": "560927466", "code": 2304, "fclass": "pub", "name": "Dylyno Bar" }, "geometry": { "type": "Point", "coordinates": [ 20.2430527, 49.0675119 ] } },
{ "type": "Feature", "properties": { "osm_id": "560927466", "code": 2404, "fclass": "guesthouse", "name": "Dylyno Bar" }, "geometry": { "type": "Point", "coordinates": [ 20.2430527, 49.0675119 ] } },
{ "type": "Feature", "properties": { "osm_id": "568353825", "code": 2701, "fclass": "tourist_info", "name": "Trohánka" }, "geometry": { "type": "Point", "coordinates": [ 20.9171717, 48.7647406 ] } },
{ "type": "Feature", "properties": { "osm_id": "568353890", "code": 2701, "fclass": "tourist_info", "name": "Kloptáň" }, "geometry": { "type": "Point", "coordinates": [ 20.8597408, 48.7793968 ] } },
{ "type": "Feature", "properties": { "osm_id": "568353913", "code": 2701, "fclass": "tourist_info", "name": "Tri studne" }, "geometry": { "type": "Point", "coordinates": [ 20.9207378, 48.7654234 ] } },
{ "type": "Feature", "properties": { "osm_id": "568354013", "code": 2701, "fclass": "tourist_info", "name": "Biely kameň" }, "geometry": { "type": "Point", "coordinates": [ 20.9459402, 48.7750904 ] } },
{ "type": "Feature", "properties": { "osm_id": "568354026", "code": 2701, "fclass": "tourist_info", "name": null }, "geometry": { "type": "Point", "coordinates": [ 20.9464455, 48.773915 ] } },
{ "type": "Feature", "properties": { "osm_id": "602964014", "code": 2301, "fclass": "restaurant", "name": "Salaš Veľký Slavkov" }, "geometry": { "type": "Point", "coordinates": [ 20.2859613, 49.09015 ] } },
{ "type": "Feature", "properties": { "osm_id": "603657989", "code": 2701, "fclass": "tourist_info", "name": "Teplička" }, "geometry": { "type": "Point", "coordinates": [ 20.5846063, 48.9096923 ] } },
{ "type": "Feature", "properties": { "osm_id": "603658047", "code": 2002, "fclass": "fire_station", "name": null }, "geometry": { "type": "Point", "coordinates": [ 20.5863411, 48.9087176 ] } },
{ "type": "Feature", "properties": { "osm_id": "603658051", "code": 2305, "fclass": "bar", "name": "U  Ľubice" }, "geometry": { "type": "Point", "coordinates": [ 20.5868535, 48.9093611 ] } },
{ "type": "Feature", "properties": { "osm_id": "603658052", "code": 2404, "fclass": "guesthouse", "name": "U  Ľubice" }, "geometry": { "type": "Point", "coordinates": [ 20.5868851, 48.9094305 ] } },
{ "type": "Feature", "properties": { "osm_id": "603658143", "code": 2511, "fclass": "convenience", "name": null }, "geometry": { "type": "Point", "coordinates": [ 20.5898342, 48.9083698 ] } },
{ "type": "Feature", "properties": { "osm_id": "603658147", "code": 2305, "fclass": "bar", "name": null }, "geometry": { "type": "Point", "coordinates": [ 20.5894599, 48.9085108 ] } },
{ "type": "Feature", "properties": { "osm_id": "603658148", "code": 2005, "fclass": "post_office", "name": null }, "geometry": { "type": "Point", "coordinates": [ 20.5893214, 48.9085656 ] } },
{ "type": "Feature", "properties": { "osm_id": "603658151", "code": 2082, "fclass": "school", "name": "Teplička" }, "geometry": { "type": "Point", "coordinates": [ 20.590084, 48.9088279 ] } },
{ "type": "Feature", "properties": { "osm_id": "603658152", "code": 2083, "fclass": "kindergarten", "name": null }, "geometry": { "type": "Point", "coordinates": [ 20.5897118, 48.9088634 ] } },
{ "type": "Feature", "properties": { "osm_id": "603658160", "code": 2304, "fclass": "pub", "name": null }, "geometry": { "type": "Point", "coordinates": [ 20.590188, 48.9083005 ] } },
{ "type": "Feature", "properties": { "osm_id": "603658172", "code": 2511, "fclass": "convenience", "name": null }, "geometry": { "type": "Point", "coordinates": [ 20.5923438, 48.9087651 ] } },
{ "type": "Feature", "properties": { "osm_id": "603658239", "code": 2701, "fclass": "tourist_info", "name": "Pod Tepličkou" }, "geometry": { "type": "Point", "coordinates": [ 20.5837975, 48.9182152 ] } },
{ "type": "Feature", "properties": { "osm_id": "609983329", "code": 2602, "fclass": "atm", "name": null }, "geometry": { "type": "Point", "coordinates": [ 20.2859993, 49.0474914 ] } },
{ "type": "Feature", "properties": { "osm_id": "609983331", "code": 2512, "fclass": "clothes", "name": "Queens" }, "geometry": { "type": "Point", "coordinates": [ 20.2847368, 49.0473689 ] } },
{ "type": "Feature", "properties": { "osm_id": "609983398", "code": 2301, "fclass": "restaurant", "name": "Utópia" }, "geometry": { "type": "Point", "coordinates": [ 20.3012963, 49.0484055 ] } },
{ "type": "Feature", "properties": { "osm_id": "609983433", "code": 2722, "fclass": "museum", "name": "Podtatranské múzeum" }, "geometry": { "type": "Point", "coordinates": [ 20.2972391, 49.0535375 ] } },
{ "type": "Feature", "properties": { "osm_id": "609983461", "code": 2304, "fclass": "pub", "name": "Mustang" }, "geometry": { "type": "Point", "coordinates": [ 20.3007922, 49.0490166 ] } },
{ "type": "Feature", "properties": { "osm_id": "609983473", "code": 2601, "fclass": "bank", "name": "Poštová banka" }, "geometry": { "type": "Point", "coordinates": [ 20.2971259, 49.0542102 ] } },
{ "type": "Feature", "properties": { "osm_id": "615463402", "code": 2701, "fclass": "tourist_info", "name": "Tatarkov kríž" }, "geometry": { "type": "Point", "coordinates": [ 20.8783604, 48.8666962 ] } },
{ "type": "Feature", "properties": { "osm_id": "617085688", "code": 2304, "fclass": "pub", "name": "Regina" }, "geometry": { "type": "Point", "coordinates": [ 20.2804994, 49.045554 ] } },
{ "type": "Feature", "properties": { "osm_id": "618833167", "code": 2304, "fclass": "pub", "name": null }, "geometry": { "type": "Point", "coordinates": [ 20.2599266, 48.9242992 ] } },
{ "type": "Feature", "properties": { "osm_id": "642144534", "code": 2701, "fclass": "tourist_info", "name": "Richnava" }, "geometry": { "type": "Point", "coordinates": [ 20.9263084, 48.9228081 ] } },
{ "type": "Feature", "properties": { "osm_id": "642144700", "code": 2734, "fclass": "wayside_cross", "name": null }, "geometry": { "type": "Point", "coordinates": [ 20.9230831, 48.9304545 ] } },
{ "type": "Feature", "properties": { "osm_id": "648849188", "code": 2734, "fclass": "wayside_cross", "name": "Kríž nad Oľšim" }, "geometry": { "type": "Point", "coordinates": [ 20.9182062, 48.9432389 ] } },
{ "type": "Feature", "properties": { "osm_id": "648849273", "code": 2901, "fclass": "toilet", "name": null }, "geometry": { "type": "Point", "coordinates": [ 20.9275555, 48.9675682 ] } },
{ "type": "Feature", "properties": { "osm_id": "648849299", "code": 2741, "fclass": "picnic_site", "name": null }, "geometry": { "type": "Point", "coordinates": [ 20.9335774, 48.9693542 ] } },
{ "type": "Feature", "properties": { "osm_id": "648849307", "code": 2741, "fclass": "picnic_site", "name": null }, "geometry": { "type": "Point", "coordinates": [ 20.9344104, 48.9694384 ] } },
{ "type": "Feature", "properties": { "osm_id": "648849308", "code": 2901, "fclass": "toilet", "name": null }, "geometry": { "type": "Point", "coordinates": [ 20.9343075, 48.9693107 ] } },
{ "type": "Feature", "properties": { "osm_id": "648849319", "code": 2701, "fclass": "tourist_info", "name": null }, "geometry": { "type": "Point", "coordinates": [ 20.9341804, 48.9696239 ] } },
{ "type": "Feature", "properties": { "osm_id": "662700323", "code": 2421, "fclass": "shelter", "name": null }, "geometry": { "type": "Point", "coordinates": [ 20.2525899, 48.8437407 ] } },
{ "type": "Feature", "properties": { "osm_id": "662710415", "code": 2701, "fclass": "tourist_info", "name": "Pri Tomášovskom výhľade" }, "geometry": { "type": "Point", "coordinates": [ 20.4612294, 48.9493031 ] } },
{ "type": "Feature", "properties": { "osm_id": "662712770", "code": 2701, "fclass": "tourist_info", "name": "Občasný prameň" }, "geometry": { "type": "Point", "coordinates": [ 20.3493982, 48.8889734 ] } },
{ "type": "Feature", "properties": { "osm_id": "662715509", "code": 2701, "fclass": "tourist_info", "name": "Dedinky, hotel" }, "geometry": { "type": "Point", "coordinates": [ 20.3855078, 48.8634549 ] } },
{ "type": "Feature", "properties": { "osm_id": "663057044", "code": 2741, "fclass": "picnic_site", "name": null }, "geometry": { "type": "Point", "coordinates": [ 20.8920973, 48.944443 ] } },
{ "type": "Feature", "properties": { "osm_id": "663057059", "code": 2701, "fclass": "tourist_info", "name": "Gavart" }, "geometry": { "type": "Point", "coordinates": [ 20.8975191, 48.9361518 ] } },
{ "type": "Feature", "properties": { "osm_id": "663057088", "code": 2701, "fclass": "tourist_info", "name": "Sľubica" }, "geometry": { "type": "Point", "coordinates": [ 20.8722783, 48.9733702 ] } },
{ "type": "Feature", "properties": { "osm_id": "663057128", "code": 2741, "fclass": "picnic_site", "name": null }, "geometry": { "type": "Point", "coordinates": [ 20.8709264, 48.9817414 ] } },
{ "type": "Feature", "properties": { "osm_id": "663057198", "code": 2701, "fclass": "tourist_info", "name": "Humenec, sedlo" }, "geometry": { "type": "Point", "coordinates": [ 20.8646199, 48.9908731 ] } },
{ "type": "Feature", "properties": { "osm_id": "663057271", "code": 2701, "fclass": "tourist_info", "name": "Pod Predkami" }, "geometry": { "type": "Point", "coordinates": [ 20.8804404, 48.9653912 ] } },
{ "type": "Feature", "properties": { "osm_id": "663057289", "code": 2701, "fclass": "tourist_info", "name": "Predky" }, "geometry": { "type": "Point", "coordinates": [ 20.8810297, 48.9663594 ] } },
{ "type": "Feature", "properties": { "osm_id": "663057301", "code": 2421, "fclass": "shelter", "name": null }, "geometry": { "type": "Point", "coordinates": [ 20.8806016, 48.9666876 ] } },
{ "type": "Feature", "properties": { "osm_id": "663057732", "code": 2701, "fclass": "tourist_info", "name": "Peklisko" }, "geometry": { "type": "Point", "coordinates": [ 20.8862396, 48.9984423 ] } },
{ "type": "Feature", "properties": { "osm_id": "663057738", "code": 2742, "fclass": "viewpoint", "name": null }, "geometry": { "type": "Point", "coordinates": [ 20.8972114, 48.9790068 ] } },
{ "type": "Feature", "properties": { "osm_id": "663057788", "code": 2742, "fclass": "viewpoint", "name": null }, "geometry": { "type": "Point", "coordinates": [ 20.8603552, 49.0020919 ] } },
{ "type": "Feature", "properties": { "osm_id": "663057834", "code": 2701, "fclass": "tourist_info", "name": "Pod Rudníkom" }, "geometry": { "type": "Point", "coordinates": [ 20.8590449, 49.0076967 ] } },
{ "type": "Feature", "properties": { "osm_id": "663057883", "code": 2741, "fclass": "picnic_site", "name": null }, "geometry": { "type": "Point", "coordinates": [ 20.8569653, 49.0172368 ] } },
{ "type": "Feature", "properties": { "osm_id": "663057884", "code": 2701, "fclass": "tourist_info", "name": "Richnava" }, "geometry": { "type": "Point", "coordinates": [ 20.9206644, 48.9263104 ] } },
{ "type": "Feature", "properties": { "osm_id": "663069506", "code": 2742, "fclass": "viewpoint", "name": null }, "geometry": { "type": "Point", "coordinates": [ 20.8722071, 48.9733942 ] } },
{ "type": "Feature", "properties": { "osm_id": "663069508", "code": 2742, "fclass": "viewpoint", "name": null }, "geometry": { "type": "Point", "coordinates": [ 20.8633827, 48.9960214 ] } },
{ "type": "Feature", "properties": { "osm_id": "663069513", "code": 2742, "fclass": "viewpoint", "name": null }, "geometry": { "type": "Point", "coordinates": [ 20.8740541, 48.977995 ] } },
{ "type": "Feature", "properties": { "osm_id": "663069514", "code": 2951, "fclass": "comms_tower", "name": "Rudník" }, "geometry": { "type": "Point", "coordinates": [ 20.8589077, 49.0062107 ] } },
{ "type": "Feature", "properties": { "osm_id": "663069516", "code": 2735, "fclass": "wayside_shrine", "name": "Chvalabohu" }, "geometry": { "type": "Point", "coordinates": [ 20.8569242, 49.0177231 ] } },
{ "type": "Feature", "properties": { "osm_id": "663069518", "code": 2734, "fclass": "wayside_cross", "name": null }, "geometry": { "type": "Point", "coordinates": [ 20.8570898, 49.0175503 ] } },
{ "type": "Feature", "properties": { "osm_id": "663071082", "code": 2905, "fclass": "hunting_stand", "name": null }, "geometry": { "type": "Point", "coordinates": [ 20.8816045, 48.9545206 ] } },
{ "type": "Feature", "properties": { "osm_id": "663071083", "code": 2905, "fclass": "hunting_stand", "name": null }, "geometry": { "type": "Point", "coordinates": [ 20.8810766, 48.9657823 ] } },
{ "type": "Feature", "properties": { "osm_id": "668232467", "code": 2701, "fclass": "tourist_info", "name": "Spálenica" }, "geometry": { "type": "Point", "coordinates": [ 20.9512132, 48.7756988 ] } },
{ "type": "Feature", "properties": { "osm_id": "669895698", "code": 2724, "fclass": "memorial", "name": "SNP 1944 - 1999" }, "geometry": { "type": "Point", "coordinates": [ 20.9640721, 48.7781876 ] } },
{ "type": "Feature", "properties": { "osm_id": "670067572", "code": 2701, "fclass": "tourist_info", "name": "Pod Tarčou" }, "geometry": { "type": "Point", "coordinates": [ 20.5618423, 48.9374233 ] } },
{ "type": "Feature", "properties": { "osm_id": "670067582", "code": 2701, "fclass": "tourist_info", "name": "Za Hornádom" }, "geometry": { "type": "Point", "coordinates": [ 20.5651997, 48.9397817 ] } },
{ "type": "Feature", "properties": { "osm_id": "670501598", "code": 2701, "fclass": "tourist_info", "name": "Spišká Nová Ves, Mier" }, "geometry": { "type": "Point", "coordinates": [ 20.5553826, 48.9436241 ] } },
{ "type": "Feature", "properties": { "osm_id": "671455934", "code": 2701, "fclass": "tourist_info", "name": "Roháčka" }, "geometry": { "type": "Point", "coordinates": [ 21.0129165, 48.9238427 ] } },
{ "type": "Feature", "properties": { "osm_id": "671455940", "code": 2734, "fclass": "wayside_cross", "name": null }, "geometry": { "type": "Point", "coordinates": [ 21.0048262, 48.9273954 ] } },
{ "type": "Feature", "properties": { "osm_id": "671456006", "code": 2734, "fclass": "wayside_cross", "name": null }, "geometry": { "type": "Point", "coordinates": [ 20.9785269, 48.9387527 ] } },
{ "type": "Feature", "properties": { "osm_id": "671456023", "code": 2742, "fclass": "viewpoint", "name": "Rozsypaná skala" }, "geometry": { "type": "Point", "coordinates": [ 21.0047425, 48.9274398 ] } },
{ "type": "Feature", "properties": { "osm_id": "671456085", "code": 2741, "fclass": "picnic_site", "name": null }, "geometry": { "type": "Point", "coordinates": [ 21.0045682, 48.9274634 ] } },
{ "type": "Feature", "properties": { "osm_id": "671456130", "code": 2725, "fclass": "artwork", "name": null }, "geometry": { "type": "Point", "coordinates": [ 21.0048124, 48.9274056 ] } },
{ "type": "Feature", "properties": { "osm_id": "671456136", "code": 2741, "fclass": "picnic_site", "name": null }, "geometry": { "type": "Point", "coordinates": [ 20.9890716, 48.9304037 ] } },
{ "type": "Feature", "properties": { "osm_id": "671456156", "code": 2901, "fclass": "toilet", "name": null }, "geometry": { "type": "Point", "coordinates": [ 20.9717479, 48.9533613 ] } },
{ "type": "Feature", "properties": { "osm_id": "671770386", "code": 2304, "fclass": "pub", "name": null }, "geometry": { "type": "Point", "coordinates": [ 20.8893265, 48.8922901 ] } },
{ "type": "Feature", "properties": { "osm_id": "671782535", "code": 2304, "fclass": "pub", "name": "Astra" }, "geometry": { "type": "Point", "coordinates": [ 20.3022626, 49.0458163 ] } },
{ "type": "Feature", "properties": { "osm_id": "672081971", "code": 2735, "fclass": "wayside_shrine", "name": null }, "geometry": { "type": "Point", "coordinates": [ 20.3769753, 48.990001 ] } },
{ "type": "Feature", "properties": { "osm_id": "672082051", "code": 2734, "fclass": "wayside_cross", "name": null }, "geometry": { "type": "Point", "coordinates": [ 20.7065837, 48.7133539 ] } },
{ "type": "Feature", "properties": { "osm_id": "672082075", "code": 2734, "fclass": "wayside_cross", "name": null }, "geometry": { "type": "Point", "coordinates": [ 20.7519784, 48.7265076 ] } },
{ "type": "Feature", "properties": { "osm_id": "672082077", "code": 2734, "fclass": "wayside_cross", "name": null }, "geometry": { "type": "Point", "coordinates": [ 20.7557189, 48.7213516 ] } },
{ "type": "Feature", "properties": { "osm_id": "672082078", "code": 2734, "fclass": "wayside_cross", "name": null }, "geometry": { "type": "Point", "coordinates": [ 20.7516817, 48.7229459 ] } },
{ "type": "Feature", "properties": { "osm_id": "672082079", "code": 2734, "fclass": "wayside_cross", "name": null }, "geometry": { "type": "Point", "coordinates": [ 20.75866, 48.7210224 ] } },
{ "type": "Feature", "properties": { "osm_id": "672082084", "code": 2734, "fclass": "wayside_cross", "name": null }, "geometry": { "type": "Point", "coordinates": [ 20.8962227, 48.8355869 ] } },
{ "type": "Feature", "properties": { "osm_id": "672082086", "code": 2734, "fclass": "wayside_cross", "name": "Tatarkov kríž" }, "geometry": { "type": "Point", "coordinates": [ 20.8785314, 48.8667136 ] } },
{ "type": "Feature", "properties": { "osm_id": "672082087", "code": 2734, "fclass": "wayside_cross", "name": null }, "geometry": { "type": "Point", "coordinates": [ 20.9150659, 48.8617649 ] } },
{ "type": "Feature", "properties": { "osm_id": "672082088", "code": 2735, "fclass": "wayside_shrine", "name": null }, "geometry": { "type": "Point", "coordinates": [ 20.9143791, 48.8547973 ] } },
{ "type": "Feature", "properties": { "osm_id": "672082094", "code": 2734, "fclass": "wayside_cross", "name": "bratstvo Svätého ruženca 1906" }, "geometry": { "type": "Point", "coordinates": [ 20.9978889, 48.7182985 ] } },
{ "type": "Feature", "properties": { "osm_id": "672082113", "code": 2734, "fclass": "wayside_cross", "name": null }, "geometry": { "type": "Point", "coordinates": [ 20.4665204, 49.0034936 ] } },
{ "type": "Feature", "properties": { "osm_id": "672082114", "code": 2734, "fclass": "wayside_cross", "name": null }, "geometry": { "type": "Point", "coordinates": [ 20.4819955, 48.9822498 ] } },
{ "type": "Feature", "properties": { "osm_id": "672082142", "code": 2734, "fclass": "wayside_cross", "name": null }, "geometry": { "type": "Point", "coordinates": [ 20.7051761, 48.9902564 ] } },
{ "type": "Feature", "properties": { "osm_id": "672082145", "code": 2734, "fclass": "wayside_cross", "name": null }, "geometry": { "type": "Point", "coordinates": [ 20.6883917, 48.9844738 ] } },
{ "type": "Feature", "properties": { "osm_id": "672082149", "code": 2734, "fclass": "wayside_cross", "name": null }, "geometry": { "type": "Point", "coordinates": [ 20.7279896, 48.9615651 ] } },
{ "type": "Feature", "properties": { "osm_id": "672082183", "code": 2734, "fclass": "wayside_cross", "name": null }, "geometry": { "type": "Point", "coordinates": [ 20.7161851, 49.0626229 ] } },
{ "type": "Feature", "properties": { "osm_id": "672082187", "code": 2734, "fclass": "wayside_cross", "name": null }, "geometry": { "type": "Point", "coordinates": [ 20.6877423, 49.0671932 ] } },
{ "type": "Feature", "properties": { "osm_id": "672082192", "code": 2734, "fclass": "wayside_cross", "name": null }, "geometry": { "type": "Point", "coordinates": [ 20.72343, 49.0626663 ] } },
{ "type": "Feature", "properties": { "osm_id": "672082195", "code": 2734, "fclass": "wayside_cross", "name": null }, "geometry": { "type": "Point", "coordinates": [ 20.745636, 48.9482662 ] } },
{ "type": "Feature", "properties": { "osm_id": "672082199", "code": 2734, "fclass": "wayside_cross", "name": null }, "geometry": { "type": "Point", "coordinates": [ 20.8645688, 48.9509399 ] } },
{ "type": "Feature", "properties": { "osm_id": "672082212", "code": 2735, "fclass": "wayside_shrine", "name": null }, "geometry": { "type": "Point", "coordinates": [ 20.8173431, 49.0072125 ] } },
{ "type": "Feature", "properties": { "osm_id": "672082219", "code": 2734, "fclass": "wayside_cross", "name": null }, "geometry": { "type": "Point", "coordinates": [ 20.849977, 48.9604488 ] } },
{ "type": "Feature", "properties": { "osm_id": "672082221", "code": 2734, "fclass": "wayside_cross", "name": null }, "geometry": { "type": "Point", "coordinates": [ 20.823412, 49.0172319 ] } },
{ "type": "Feature", "properties": { "osm_id": "672082224", "code": 2734, "fclass": "wayside_cross", "name": null }, "geometry": { "type": "Point", "coordinates": [ 20.9527934, 48.9154436 ] } },
{ "type": "Feature", "properties": { "osm_id": "672082231", "code": 2734, "fclass": "wayside_cross", "name": null }, "geometry": { "type": "Point", "coordinates": [ 20.9266982, 48.9259629 ] } },
{ "type": "Feature", "properties": { "osm_id": "672082232", "code": 2734, "fclass": "wayside_cross", "name": null }, "geometry": { "type": "Point", "coordinates": [ 20.9270993, 48.9267229 ] } },
{ "type": "Feature", "properties": { "osm_id": "672082237", "code": 2734, "fclass": "wayside_cross", "name": null }, "geometry": { "type": "Point", "coordinates": [ 20.9330275, 48.9239085 ] } },
{ "type": "Feature", "properties": { "osm_id": "672082238", "code": 2734, "fclass": "wayside_cross", "name": null }, "geometry": { "type": "Point", "coordinates": [ 20.9422521, 48.9356623 ] } },
{ "type": "Feature", "properties": { "osm_id": "672082250", "code": 2734, "fclass": "wayside_cross", "name": null }, "geometry": { "type": "Point", "coordinates": [ 20.9434059, 48.9965669 ] } },
{ "type": "Feature", "properties": { "osm_id": "672082255", "code": 2734, "fclass": "wayside_cross", "name": null }, "geometry": { "type": "Point", "coordinates": [ 20.9836155, 49.0367453 ] } },
{ "type": "Feature", "properties": { "osm_id": "672082258", "code": 2734, "fclass": "wayside_cross", "name": null }, "geometry": { "type": "Point", "coordinates": [ 20.8345774, 49.0798754 ] } },
{ "type": "Feature", "properties": { "osm_id": "672082259", "code": 2735, "fclass": "wayside_shrine", "name": "Kaplnka Svätého Jána, apoštola" }, "geometry": { "type": "Point", "coordinates": [ 20.8476932, 49.0870601 ] } },
{ "type": "Feature", "properties": { "osm_id": "672082262", "code": 2735, "fclass": "wayside_shrine", "name": null }, "geometry": { "type": "Point", "coordinates": [ 20.8535665, 49.1088757 ] } },
{ "type": "Feature", "properties": { "osm_id": "672082264", "code": 2734, "fclass": "wayside_cross", "name": null }, "geometry": { "type": "Point", "coordinates": [ 20.853225, 49.1070682 ] } },
{ "type": "Feature", "properties": { "osm_id": "679160035", "code": 2904, "fclass": "fountain", "name": null }, "geometry": { "type": "Point", "coordinates": [ 20.855594, 49.1007356 ] } },
{ "type": "Feature", "properties": { "osm_id": "679160045", "code": 2904, "fclass": "fountain", "name": null }, "geometry": { "type": "Point", "coordinates": [ 20.8702667, 48.9525481 ] } },
{ "type": "Feature", "properties": { "osm_id": "683894960", "code": 2501, "fclass": "supermarket", "name": "Sintra" }, "geometry": { "type": "Point", "coordinates": [ 20.2951427, 49.0436436 ] } },
{ "type": "Feature", "properties": { "osm_id": "683894961", "code": 2501, "fclass": "supermarket", "name": "Sintra" }, "geometry": { "type": "Point", "coordinates": [ 20.2876632, 49.0442108 ] } },
{ "type": "Feature", "properties": { "osm_id": "684317905", "code": 2701, "fclass": "tourist_info", "name": "Ploštiny" }, "geometry": { "type": "Point", "coordinates": [ 20.8099531, 48.8829937 ] } },
{ "type": "Feature", "properties": { "osm_id": "684318000", "code": 2701, "fclass": "tourist_info", "name": "Slovinky, kaplnka" }, "geometry": { "type": "Point", "coordinates": [ 20.8351413, 48.8819311 ] } },
{ "type": "Feature", "properties": { "osm_id": "684638573", "code": 2421, "fclass": "shelter", "name": null }, "geometry": { "type": "Point", "coordinates": [ 20.2185334, 49.0533148 ] } },
{ "type": "Feature", "properties": { "osm_id": "684638574", "code": 2304, "fclass": "pub", "name": "Baba" }, "geometry": { "type": "Point", "coordinates": [ 20.2134625, 49.0548699 ] } },
{ "type": "Feature", "properties": { "osm_id": "684638639", "code": 2501, "fclass": "supermarket", "name": "Sintra" }, "geometry": { "type": "Point", "coordinates": [ 20.2140092, 49.0582648 ] } },
{ "type": "Feature", "properties": { "osm_id": "685157192", "code": 2724, "fclass": "memorial", "name": "Oslobodenie mesta" }, "geometry": { "type": "Point", "coordinates": [ 20.5320319, 48.6621134 ] } },
{ "type": "Feature", "properties": { "osm_id": "685708925", "code": 2901, "fclass": "toilet", "name": null }, "geometry": { "type": "Point", "coordinates": [ 20.9716215, 48.9534375 ] } },
{ "type": "Feature", "properties": { "osm_id": "685708980", "code": 2903, "fclass": "drinking_water", "name": null }, "geometry": { "type": "Point", "coordinates": [ 20.9721726, 48.953187 ] } },
{ "type": "Feature", "properties": { "osm_id": "692759794", "code": 2701, "fclass": "tourist_info", "name": "Pod Bielymi skalami" }, "geometry": { "type": "Point", "coordinates": [ 20.6525053, 48.7229526 ] } },
{ "type": "Feature", "properties": { "osm_id": "692759801", "code": 2903, "fclass": "drinking_water", "name": null }, "geometry": { "type": "Point", "coordinates": [ 20.6613819, 48.729127 ] } },
{ "type": "Feature", "properties": { "osm_id": "692759827", "code": 2734, "fclass": "wayside_cross", "name": null }, "geometry": { "type": "Point", "coordinates": [ 20.6493805, 48.702245 ] } },
{ "type": "Feature", "properties": { "osm_id": "700234343", "code": 2421, "fclass": "shelter", "name": "Kvašna voda" }, "geometry": { "type": "Point", "coordinates": [ 20.891994, 48.9545963 ] } },
{ "type": "Feature", "properties": { "osm_id": "700362870", "code": 2951, "fclass": "comms_tower", "name": null }, "geometry": { "type": "Point", "coordinates": [ 20.5385019, 48.8782295 ] } },
{ "type": "Feature", "properties": { "osm_id": "700362880", "code": 2951, "fclass": "comms_tower", "name": null }, "geometry": { "type": "Point", "coordinates": [ 21.0053603, 48.7347184 ] } },
{ "type": "Feature", "properties": { "osm_id": "700362920", "code": 2951, "fclass": "comms_tower", "name": null }, "geometry": { "type": "Point", "coordinates": [ 20.7429375, 48.9510204 ] } },
{ "type": "Feature", "properties": { "osm_id": "700362953", "code": 2951, "fclass": "comms_tower", "name": null }, "geometry": { "type": "Point", "coordinates": [ 20.8441993, 49.0836863 ] } },
{ "type": "Feature", "properties": { "osm_id": "700362966", "code": 2951, "fclass": "comms_tower", "name": null }, "geometry": { "type": "Point", "coordinates": [ 20.5588578, 49.0120368 ] } },
{ "type": "Feature", "properties": { "osm_id": "700362976", "code": 2951, "fclass": "comms_tower", "name": null }, "geometry": { "type": "Point", "coordinates": [ 20.3982695, 48.8474025 ] } },
{ "type": "Feature", "properties": { "osm_id": "700362977", "code": 2951, "fclass": "comms_tower", "name": null }, "geometry": { "type": "Point", "coordinates": [ 20.3457294, 49.0356265 ] } },
{ "type": "Feature", "properties": { "osm_id": "700362979", "code": 2951, "fclass": "comms_tower", "name": null }, "geometry": { "type": "Point", "coordinates": [ 20.9932703, 48.8505218 ] } },
{ "type": "Feature", "properties": { "osm_id": "700362996", "code": 2951, "fclass": "comms_tower", "name": null }, "geometry": { "type": "Point", "coordinates": [ 20.6422816, 48.9615454 ] } },
{ "type": "Feature", "properties": { "osm_id": "700363010", "code": 2951, "fclass": "comms_tower", "name": null }, "geometry": { "type": "Point", "coordinates": [ 20.389464, 48.847925 ] } },
{ "type": "Feature", "properties": { "osm_id": "700363041", "code": 2951, "fclass": "comms_tower", "name": null }, "geometry": { "type": "Point", "coordinates": [ 20.3898753, 48.8478708 ] } },
{ "type": "Feature", "properties": { "osm_id": "701535229", "code": 2304, "fclass": "pub", "name": null }, "geometry": { "type": "Point", "coordinates": [ 20.2059738, 49.0549277 ] } },
{ "type": "Feature", "properties": { "osm_id": "701535230", "code": 2302, "fclass": "fast_food", "name": "Inline Stop" }, "geometry": { "type": "Point", "coordinates": [ 20.2177269, 49.053577 ] } },
{ "type": "Feature", "properties": { "osm_id": "702255834", "code": 2401, "fclass": "hotel", "name": "Hotel Olympia" }, "geometry": { "type": "Point", "coordinates": [ 20.2786858, 49.0573956 ] } },
{ "type": "Feature", "properties": { "osm_id": "702256037", "code": 2401, "fclass": "hotel", "name": "Hotel Poprad" }, "geometry": { "type": "Point", "coordinates": [ 20.2922399, 49.0554281 ] } },
{ "type": "Feature", "properties": { "osm_id": "705858949", "code": 2701, "fclass": "tourist_info", "name": "Hačava" }, "geometry": { "type": "Point", "coordinates": [ 20.8426081, 48.6645464 ] } },
{ "type": "Feature", "properties": { "osm_id": "706326287", "code": 2701, "fclass": "tourist_info", "name": "Ku Buku" }, "geometry": { "type": "Point", "coordinates": [ 20.9382145, 48.8706455 ] } },
{ "type": "Feature", "properties": { "osm_id": "706326322", "code": 2701, "fclass": "tourist_info", "name": "Gáborova chata" }, "geometry": { "type": "Point", "coordinates": [ 20.9029175, 48.8755306 ] } },
{ "type": "Feature", "properties": { "osm_id": "706326738", "code": 2701, "fclass": "tourist_info", "name": "Leopolda" }, "geometry": { "type": "Point", "coordinates": [ 20.8933786, 48.8646962 ] } },
{ "type": "Feature", "properties": { "osm_id": "706326751", "code": 2701, "fclass": "tourist_info", "name": "Sedlo pod krompašským vrchom" }, "geometry": { "type": "Point", "coordinates": [ 20.891549, 48.8833074 ] } },
{ "type": "Feature", "properties": { "osm_id": "706326815", "code": 2701, "fclass": "tourist_info", "name": "Esíčko" }, "geometry": { "type": "Point", "coordinates": [ 20.8946427, 48.8651478 ] } },
{ "type": "Feature", "properties": { "osm_id": "706326828", "code": 2701, "fclass": "tourist_info", "name": "Klippberg" }, "geometry": { "type": "Point", "coordinates": [ 20.8988929, 48.875102 ] } },
{ "type": "Feature", "properties": { "osm_id": "706326865", "code": 2701, "fclass": "tourist_info", "name": "Štefánia" }, "geometry": { "type": "Point", "coordinates": [ 20.8860241, 48.8655499 ] } },
{ "type": "Feature", "properties": { "osm_id": "706327012", "code": 2701, "fclass": "tourist_info", "name": "Slovenské Cechy" }, "geometry": { "type": "Point", "coordinates": [ 20.91236, 48.8630819 ] } },
{ "type": "Feature", "properties": { "osm_id": "706327038", "code": 2701, "fclass": "tourist_info", "name": "Marichanina lúka" }, "geometry": { "type": "Point", "coordinates": [ 20.9303621, 48.8707029 ] } },
{ "type": "Feature", "properties": { "osm_id": "706327098", "code": 2701, "fclass": "tourist_info", "name": "Kozáriky" }, "geometry": { "type": "Point", "coordinates": [ 20.880808, 48.8629402 ] } },
{ "type": "Feature", "properties": { "osm_id": "706327233", "code": 2701, "fclass": "tourist_info", "name": "Diana" }, "geometry": { "type": "Point", "coordinates": [ 20.8933321, 48.852729 ] } },
{ "type": "Feature", "properties": { "osm_id": "706327242", "code": 2701, "fclass": "tourist_info", "name": "Kráľovský buk" }, "geometry": { "type": "Point", "coordinates": [ 20.8853011, 48.8583201 ] } },
{ "type": "Feature", "properties": { "osm_id": "706327326", "code": 2701, "fclass": "tourist_info", "name": "Plejsy - Priehyba" }, "geometry": { "type": "Point", "coordinates": [ 20.8944659, 48.8857859 ] } },
{ "type": "Feature", "properties": { "osm_id": "706327408", "code": 2701, "fclass": "tourist_info", "name": "Pod Dianou" }, "geometry": { "type": "Point", "coordinates": [ 20.8999037, 48.850978 ] } },
{ "type": "Feature", "properties": { "osm_id": "708057593", "code": 2701, "fclass": "tourist_info", "name": "Strieborná" }, "geometry": { "type": "Point", "coordinates": [ 20.9868946, 48.8397732 ] } },
{ "type": "Feature", "properties": { "osm_id": "708057899", "code": 2701, "fclass": "tourist_info", "name": "Mária huta" }, "geometry": { "type": "Point", "coordinates": [ 20.9595897, 48.8664686 ] } },
{ "type": "Feature", "properties": { "osm_id": "708058020", "code": 2742, "fclass": "viewpoint", "name": null }, "geometry": { "type": "Point", "coordinates": [ 20.9591437, 48.8504729 ] } },
{ "type": "Feature", "properties": { "osm_id": "710809883", "code": 2701, "fclass": "tourist_info", "name": "Kojšovská hoľa, sedlo" }, "geometry": { "type": "Point", "coordinates": [ 20.978069, 48.7809479 ] } },
{ "type": "Feature", "properties": { "osm_id": "710810165", "code": 2701, "fclass": "tourist_info", "name": "Chata Erika" }, "geometry": { "type": "Point", "coordinates": [ 20.972636, 48.7809876 ] } },
{ "type": "Feature", "properties": { "osm_id": "716437253", "code": 2305, "fclass": "bar", "name": "Bar Dino" }, "geometry": { "type": "Point", "coordinates": [ 20.9395201, 48.8545978 ] } },
{ "type": "Feature", "properties": { "osm_id": "716437263", "code": 2701, "fclass": "tourist_info", "name": "Pri obrázku" }, "geometry": { "type": "Point", "coordinates": [ 20.964953, 48.8045555 ] } },
{ "type": "Feature", "properties": { "osm_id": "716437478", "code": 2004, "fclass": "post_box", "name": null }, "geometry": { "type": "Point", "coordinates": [ 20.946806, 48.8584831 ] } },
{ "type": "Feature", "properties": { "osm_id": "716437660", "code": 2701, "fclass": "tourist_info", "name": "Plejsy, chaty" }, "geometry": { "type": "Point", "coordinates": [ 20.8903621, 48.8919286 ] } },
{ "type": "Feature", "properties": { "osm_id": "716437840", "code": 2001, "fclass": "police", "name": "Mestská polícia Krompachy" }, "geometry": { "type": "Point", "coordinates": [ 20.885803, 48.9201052 ] } },
{ "type": "Feature", "properties": { "osm_id": "716438139", "code": 2421, "fclass": "shelter", "name": null }, "geometry": { "type": "Point", "coordinates": [ 20.9868032, 48.839665 ] } },
{ "type": "Feature", "properties": { "osm_id": "716438186", "code": 2701, "fclass": "tourist_info", "name": "Kyseľ" }, "geometry": { "type": "Point", "coordinates": [ 20.9739459, 48.8534835 ] } },
{ "type": "Feature", "properties": { "osm_id": "716438226", "code": 2701, "fclass": "tourist_info", "name": "Kojšovská hoľa" }, "geometry": { "type": "Point", "coordinates": [ 20.9879237, 48.7821889 ] } },
{ "type": "Feature", "properties": { "osm_id": "716745966", "code": 2701, "fclass": "tourist_info", "name": "Rázcestie Krompachy, stanica" }, "geometry": { "type": "Point", "coordinates": [ 20.8864233, 48.920906 ] } },
{ "type": "Feature", "properties": { "osm_id": "717380485", "code": 2701, "fclass": "tourist_info", "name": "Brdárka, rázc." }, "geometry": { "type": "Point", "coordinates": [ 20.3380041, 48.7690125 ] } },
{ "type": "Feature", "properties": { "osm_id": "719748858", "code": 2304, "fclass": "pub", "name": "Adia" }, "geometry": { "type": "Point", "coordinates": [ 20.2866161, 49.0559918 ] } },
{ "type": "Feature", "properties": { "osm_id": "719748919", "code": 2301, "fclass": "restaurant", "name": "Velický zámoček" }, "geometry": { "type": "Point", "coordinates": [ 20.270522, 49.065522 ] } },
{ "type": "Feature", "properties": { "osm_id": "719749147", "code": 2404, "fclass": "guesthouse", "name": "U modrého holuba" }, "geometry": { "type": "Point", "coordinates": [ 20.3220694, 49.0687209 ] } },
{ "type": "Feature", "properties": { "osm_id": "724527300", "code": 2701, "fclass": "tourist_info", "name": "Kaľava" }, "geometry": { "type": "Point", "coordinates": [ 20.8681982, 48.9347061 ] } },
{ "type": "Feature", "properties": { "osm_id": "724926369", "code": 2701, "fclass": "tourist_info", "name": "Vojkovce" }, "geometry": { "type": "Point", "coordinates": [ 20.8622799, 48.9551925 ] } },
{ "type": "Feature", "properties": { "osm_id": "727686791", "code": 2701, "fclass": "tourist_info", "name": "Pod Trsteníkom" }, "geometry": { "type": "Point", "coordinates": [ 20.2407052, 48.8350928 ] } },
{ "type": "Feature", "properties": { "osm_id": "730718737", "code": 2907, "fclass": "camera_surveillance", "name": null }, "geometry": { "type": "Point", "coordinates": [ 21.0108069, 48.8917119 ] } },
{ "type": "Feature", "properties": { "osm_id": "730720380", "code": 2701, "fclass": "tourist_info", "name": "Margecany, stanica" }, "geometry": { "type": "Point", "coordinates": [ 21.0145751, 48.8938926 ] } },
{ "type": "Feature", "properties": { "osm_id": "730726388", "code": 2907, "fclass": "camera_surveillance", "name": null }, "geometry": { "type": "Point", "coordinates": [ 21.0109185, 48.8918202 ] } },
{ "type": "Feature", "properties": { "osm_id": "730726884", "code": 2724, "fclass": "memorial", "name": null }, "geometry": { "type": "Point", "coordinates": [ 21.0133385, 48.8943545 ] } },
{ "type": "Feature", "properties": { "osm_id": "731450976", "code": 2701, "fclass": "tourist_info", "name": "Poráč" }, "geometry": { "type": "Point", "coordinates": [ 20.7252473, 48.8840464 ] } },
{ "type": "Feature", "properties": { "osm_id": "731451117", "code": 2701, "fclass": "tourist_info", "name": "Matejovce nad Hornádom" }, "geometry": { "type": "Point", "coordinates": [ 20.6700727, 48.9170718 ] } },
{ "type": "Feature", "properties": { "osm_id": "731451459", "code": 2701, "fclass": "tourist_info", "name": "Poráčska dolina" }, "geometry": { "type": "Point", "coordinates": [ 20.7425784, 48.8791133 ] } },
{ "type": "Feature", "properties": { "osm_id": "731451491", "code": 2701, "fclass": "tourist_info", "name": "Pod Suchincom" }, "geometry": { "type": "Point", "coordinates": [ 20.765853, 48.879221 ] } },
{ "type": "Feature", "properties": { "osm_id": "739000222", "code": 2301, "fclass": "restaurant", "name": "Šafran" }, "geometry": { "type": "Point", "coordinates": [ 20.3457962, 48.8686311 ] } },
{ "type": "Feature", "properties": { "osm_id": "739000222", "code": 2404, "fclass": "guesthouse", "name": "Šafran" }, "geometry": { "type": "Point", "coordinates": [ 20.3457962, 48.8686311 ] } },
{ "type": "Feature", "properties": { "osm_id": "739000304", "code": 2301, "fclass": "restaurant", "name": "Ranč pod Ostrou skalou" }, "geometry": { "type": "Point", "coordinates": [ 20.2795401, 48.8731294 ] } },
{ "type": "Feature", "properties": { "osm_id": "739000304", "code": 2404, "fclass": "guesthouse", "name": "Ranč pod Ostrou skalou" }, "geometry": { "type": "Point", "coordinates": [ 20.2795401, 48.8731294 ] } },
{ "type": "Feature", "properties": { "osm_id": "742986998", "code": 2701, "fclass": "tourist_info", "name": "Kopytovská dolina, rázcestie" }, "geometry": { "type": "Point", "coordinates": [ 20.9256496, 49.0456681 ] } },
{ "type": "Feature", "properties": { "osm_id": "742987037", "code": 2701, "fclass": "tourist_info", "name": "Šindliar - Grond" }, "geometry": { "type": "Point", "coordinates": [ 20.9366948, 49.0387912 ] } },
{ "type": "Feature", "properties": { "osm_id": "742987115", "code": 2701, "fclass": "tourist_info", "name": "Lačná studňa" }, "geometry": { "type": "Point", "coordinates": [ 20.9216073, 49.0508259 ] } },
{ "type": "Feature", "properties": { "osm_id": "742987153", "code": 2701, "fclass": "tourist_info", "name": "Lipovce, škola" }, "geometry": { "type": "Point", "coordinates": [ 20.9503993, 49.052457 ] } },
{ "type": "Feature", "properties": { "osm_id": "746954225", "code": 2401, "fclass": "hotel", "name": "Hotel Canyon" }, "geometry": { "type": "Point", "coordinates": [ 20.9417468, 49.0583515 ] } },
{ "type": "Feature", "properties": { "osm_id": "746954227", "code": 2404, "fclass": "guesthouse", "name": "Zuzana" }, "geometry": { "type": "Point", "coordinates": [ 20.9441259, 49.0596952 ] } },
{ "type": "Feature", "properties": { "osm_id": "760189484", "code": 2701, "fclass": "tourist_info", "name": "Sedlo Jedľovec" }, "geometry": { "type": "Point", "coordinates": [ 20.8406761, 48.7515762 ] } },
{ "type": "Feature", "properties": { "osm_id": "760189515", "code": 2421, "fclass": "shelter", "name": null }, "geometry": { "type": "Point", "coordinates": [ 20.9728426, 48.7810707 ] } },
{ "type": "Feature", "properties": { "osm_id": "760189608", "code": 2421, "fclass": "shelter", "name": "Rozhľadňa Kloptaň" }, "geometry": { "type": "Point", "coordinates": [ 20.8596202, 48.7794607 ] } },
{ "type": "Feature", "properties": { "osm_id": "760189608", "code": 2953, "fclass": "observation_tower", "name": "Rozhľadňa Kloptaň" }, "geometry": { "type": "Point", "coordinates": [ 20.8596202, 48.7794607 ] } },
{ "type": "Feature", "properties": { "osm_id": "760189608", "code": 2742, "fclass": "viewpoint", "name": "Rozhľadňa Kloptaň" }, "geometry": { "type": "Point", "coordinates": [ 20.8596202, 48.7794607 ] } },
{ "type": "Feature", "properties": { "osm_id": "760189665", "code": 2701, "fclass": "tourist_info", "name": "Štós - kúpele" }, "geometry": { "type": "Point", "coordinates": [ 20.7910682, 48.722166 ] } },
{ "type": "Feature", "properties": { "osm_id": "760195739", "code": 2701, "fclass": "tourist_info", "name": "Duchovná cesta - Štóske sedlo" }, "geometry": { "type": "Point", "coordinates": [ 20.7614464, 48.7218923 ] } },
{ "type": "Feature", "properties": { "osm_id": "760654848", "code": 2421, "fclass": "shelter", "name": null }, "geometry": { "type": "Point", "coordinates": [ 20.9759455, 48.7332927 ] } },
{ "type": "Feature", "properties": { "osm_id": "760654873", "code": 2701, "fclass": "tourist_info", "name": "Rozsypaný kameň" }, "geometry": { "type": "Point", "coordinates": [ 20.9469218, 48.7707149 ] } },
{ "type": "Feature", "properties": { "osm_id": "760654922", "code": 2741, "fclass": "picnic_site", "name": "Kovarcová" }, "geometry": { "type": "Point", "coordinates": [ 20.9759668, 48.7332854 ] } },
{ "type": "Feature", "properties": { "osm_id": "760654941", "code": 2421, "fclass": "shelter", "name": null }, "geometry": { "type": "Point", "coordinates": [ 20.9599008, 48.7579159 ] } },
{ "type": "Feature", "properties": { "osm_id": "760654951", "code": 2905, "fclass": "hunting_stand", "name": null }, "geometry": { "type": "Point", "coordinates": [ 20.9733337, 48.7374819 ] } },
{ "type": "Feature", "properties": { "osm_id": "760655017", "code": 2905, "fclass": "hunting_stand", "name": null }, "geometry": { "type": "Point", "coordinates": [ 20.9698628, 48.746731 ] } },
{ "type": "Feature", "properties": { "osm_id": "762729582", "code": 2701, "fclass": "tourist_info", "name": "Osadník" }, "geometry": { "type": "Point", "coordinates": [ 20.7338032, 48.6684315 ] } },
{ "type": "Feature", "properties": { "osm_id": "762729671", "code": 2701, "fclass": "tourist_info", "name": "Skorušina" }, "geometry": { "type": "Point", "coordinates": [ 20.7449903, 48.6910732 ] } },
{ "type": "Feature", "properties": { "osm_id": "762729805", "code": 2701, "fclass": "tourist_info", "name": "Hačavské sedlo" }, "geometry": { "type": "Point", "coordinates": [ 20.823356, 48.6690011 ] } },
{ "type": "Feature", "properties": { "osm_id": "765344356", "code": 2742, "fclass": "viewpoint", "name": null }, "geometry": { "type": "Point", "coordinates": [ 20.8873997, 48.8354798 ] } },
{ "type": "Feature", "properties": { "osm_id": "765348473", "code": 2742, "fclass": "viewpoint", "name": null }, "geometry": { "type": "Point", "coordinates": [ 20.5787333, 48.8566655 ] } },
{ "type": "Feature", "properties": { "osm_id": "765348495", "code": 2701, "fclass": "tourist_info", "name": "Hnilčík, Mráznica" }, "geometry": { "type": "Point", "coordinates": [ 20.5679454, 48.8558785 ] } },
{ "type": "Feature", "properties": { "osm_id": "765348500", "code": 2701, "fclass": "tourist_info", "name": "Hnilčík" }, "geometry": { "type": "Point", "coordinates": [ 20.5744544, 48.856814 ] } },
{ "type": "Feature", "properties": { "osm_id": "769477577", "code": 2701, "fclass": "tourist_info", "name": "Sedlo Krivé" }, "geometry": { "type": "Point", "coordinates": [ 20.6368964, 48.730133 ] } },
{ "type": "Feature", "properties": { "osm_id": "769477762", "code": 2701, "fclass": "tourist_info", "name": "Úhornianske sedlo" }, "geometry": { "type": "Point", "coordinates": [ 20.6494864, 48.7020855 ] } },
{ "type": "Feature", "properties": { "osm_id": "769477836", "code": 2701, "fclass": "tourist_info", "name": "Pipitka" }, "geometry": { "type": "Point", "coordinates": [ 20.6780099, 48.6851737 ] } },
{ "type": "Feature", "properties": { "osm_id": "771328157", "code": 2701, "fclass": "tourist_info", "name": "Sedlo nad Hejdovom" }, "geometry": { "type": "Point", "coordinates": [ 20.8632439, 49.0546535 ] } },
{ "type": "Feature", "properties": { "osm_id": "771328184", "code": 2701, "fclass": "tourist_info", "name": "Vyšný Slavkov" }, "geometry": { "type": "Point", "coordinates": [ 20.8458373, 49.0830381 ] } },
{ "type": "Feature", "properties": { "osm_id": "771328292", "code": 2701, "fclass": "tourist_info", "name": "Markušov" }, "geometry": { "type": "Point", "coordinates": [ 20.8722762, 49.0612385 ] } },
{ "type": "Feature", "properties": { "osm_id": "771328319", "code": 2701, "fclass": "tourist_info", "name": "Vyšný Slavkov, kameňolom" }, "geometry": { "type": "Point", "coordinates": [ 20.8564826, 49.0637383 ] } },
{ "type": "Feature", "properties": { "osm_id": "771328337", "code": 2701, "fclass": "tourist_info", "name": "Vyšný Slavkov" }, "geometry": { "type": "Point", "coordinates": [ 20.8542307, 49.0713137 ] } },
{ "type": "Feature", "properties": { "osm_id": "771328377", "code": 2701, "fclass": "tourist_info", "name": "Charita" }, "geometry": { "type": "Point", "coordinates": [ 20.8552016, 49.0738799 ] } },
{ "type": "Feature", "properties": { "osm_id": "771328447", "code": 2701, "fclass": "tourist_info", "name": "Farisko" }, "geometry": { "type": "Point", "coordinates": [ 20.852863, 49.073099 ] } },
{ "type": "Feature", "properties": { "osm_id": "772935526", "code": 2701, "fclass": "tourist_info", "name": "Galmus" }, "geometry": { "type": "Point", "coordinates": [ 20.8278744, 48.9004343 ] } },
{ "type": "Feature", "properties": { "osm_id": "772936017", "code": 2701, "fclass": "tourist_info", "name": "Pod Svinským hrbom, rázcestie" }, "geometry": { "type": "Point", "coordinates": [ 20.7218238, 48.8771057 ] } },
{ "type": "Feature", "properties": { "osm_id": "772936055", "code": 2701, "fclass": "tourist_info", "name": "Pod holým vrchom" }, "geometry": { "type": "Point", "coordinates": [ 20.704826, 48.8624925 ] } },
{ "type": "Feature", "properties": { "osm_id": "772936200", "code": 2701, "fclass": "tourist_info", "name": "Nad sejkovou" }, "geometry": { "type": "Point", "coordinates": [ 20.7939546, 48.8953998 ] } },
{ "type": "Feature", "properties": { "osm_id": "772936943", "code": 2701, "fclass": "tourist_info", "name": "Biela skala" }, "geometry": { "type": "Point", "coordinates": [ 20.8363805, 48.896475 ] } },
{ "type": "Feature", "properties": { "osm_id": "773243094", "code": 2421, "fclass": "shelter", "name": null }, "geometry": { "type": "Point", "coordinates": [ 20.8290629, 48.903671 ] } },
{ "type": "Feature", "properties": { "osm_id": "773243103", "code": 2701, "fclass": "tourist_info", "name": "Čierny bocian" }, "geometry": { "type": "Point", "coordinates": [ 20.7934708, 48.8857879 ] } },
{ "type": "Feature", "properties": { "osm_id": "773243108", "code": 2701, "fclass": "tourist_info", "name": "Chatová osada Poráčska dolina" }, "geometry": { "type": "Point", "coordinates": [ 20.7356416, 48.8794785 ] } },
{ "type": "Feature", "properties": { "osm_id": "773243130", "code": 2701, "fclass": "tourist_info", "name": "Slovinky, rošty" }, "geometry": { "type": "Point", "coordinates": [ 20.8623892, 48.8848877 ] } },
{ "type": "Feature", "properties": { "osm_id": "773243136", "code": 2701, "fclass": "tourist_info", "name": "Zbojský stôl" }, "geometry": { "type": "Point", "coordinates": [ 20.7547185, 48.8938419 ] } },
{ "type": "Feature", "properties": { "osm_id": "773243141", "code": 2742, "fclass": "viewpoint", "name": "Biela skala" }, "geometry": { "type": "Point", "coordinates": [ 20.836432, 48.8963941 ] } },
{ "type": "Feature", "properties": { "osm_id": "773243145", "code": 2734, "fclass": "wayside_cross", "name": null }, "geometry": { "type": "Point", "coordinates": [ 20.7342903, 48.8874343 ] } },
{ "type": "Feature", "properties": { "osm_id": "773243147", "code": 2903, "fclass": "drinking_water", "name": "Zrubová studňa" }, "geometry": { "type": "Point", "coordinates": [ 20.8875358, 48.8814083 ] } },
{ "type": "Feature", "properties": { "osm_id": "773243154", "code": 2421, "fclass": "shelter", "name": "Harmanka" }, "geometry": { "type": "Point", "coordinates": [ 20.8332732, 48.8993197 ] } },
{ "type": "Feature", "properties": { "osm_id": "773243167", "code": 2734, "fclass": "wayside_cross", "name": null }, "geometry": { "type": "Point", "coordinates": [ 20.7436899, 48.8791356 ] } },
{ "type": "Feature", "properties": { "osm_id": "773243169", "code": 2734, "fclass": "wayside_cross", "name": null }, "geometry": { "type": "Point", "coordinates": [ 20.8364135, 48.8964213 ] } },
{ "type": "Feature", "properties": { "osm_id": "773243171", "code": 2902, "fclass": "bench", "name": null }, "geometry": { "type": "Point", "coordinates": [ 20.8364267, 48.8964041 ] } },
{ "type": "Feature", "properties": { "osm_id": "773243180", "code": 2734, "fclass": "wayside_cross", "name": null }, "geometry": { "type": "Point", "coordinates": [ 20.7045882, 48.862316 ] } },
{ "type": "Feature", "properties": { "osm_id": "773310650", "code": 2701, "fclass": "tourist_info", "name": "Olcnava" }, "geometry": { "type": "Point", "coordinates": [ 20.7539309, 48.926477 ] } },
{ "type": "Feature", "properties": { "osm_id": "773910708", "code": 2701, "fclass": "tourist_info", "name": "Poráč" }, "geometry": { "type": "Point", "coordinates": [ 20.725251, 48.8840663 ] } },
{ "type": "Feature", "properties": { "osm_id": "773910719", "code": 2734, "fclass": "wayside_cross", "name": "II" }, "geometry": { "type": "Point", "coordinates": [ 20.870338, 48.9100631 ] } },
{ "type": "Feature", "properties": { "osm_id": "773910759", "code": 2734, "fclass": "wayside_cross", "name": "XII" }, "geometry": { "type": "Point", "coordinates": [ 20.8703401, 48.9131418 ] } },
{ "type": "Feature", "properties": { "osm_id": "773910785", "code": 2701, "fclass": "tourist_info", "name": null }, "geometry": { "type": "Point", "coordinates": [ 20.8904292, 48.891917 ] } },
{ "type": "Feature", "properties": { "osm_id": "773910792", "code": 2701, "fclass": "tourist_info", "name": "Galmus" }, "geometry": { "type": "Point", "coordinates": [ 20.8734203, 48.9106754 ] } },
{ "type": "Feature", "properties": { "osm_id": "773910799", "code": 2741, "fclass": "picnic_site", "name": null }, "geometry": { "type": "Point", "coordinates": [ 20.8277043, 48.9009839 ] } },
{ "type": "Feature", "properties": { "osm_id": "773910808", "code": 2734, "fclass": "wayside_cross", "name": "VII" }, "geometry": { "type": "Point", "coordinates": [ 20.8700402, 48.9105198 ] } },
{ "type": "Feature", "properties": { "osm_id": "773910809", "code": 2701, "fclass": "tourist_info", "name": "NPR Červené skaly" }, "geometry": { "type": "Point", "coordinates": [ 20.7424769, 48.8790913 ] } },
{ "type": "Feature", "properties": { "osm_id": "773910817", "code": 2701, "fclass": "tourist_info", "name": null }, "geometry": { "type": "Point", "coordinates": [ 20.8278468, 48.9009434 ] } },
{ "type": "Feature", "properties": { "osm_id": "773910828", "code": 2905, "fclass": "hunting_stand", "name": null }, "geometry": { "type": "Point", "coordinates": [ 20.8283605, 48.9023151 ] } },
{ "type": "Feature", "properties": { "osm_id": "773910834", "code": 2734, "fclass": "wayside_cross", "name": null }, "geometry": { "type": "Point", "coordinates": [ 20.7274329, 48.8799989 ] } },
{ "type": "Feature", "properties": { "osm_id": "773910850", "code": 2734, "fclass": "wayside_cross", "name": "III" }, "geometry": { "type": "Point", "coordinates": [ 20.8693644, 48.9100992 ] } },
{ "type": "Feature", "properties": { "osm_id": "773910852", "code": 2734, "fclass": "wayside_cross", "name": "X" }, "geometry": { "type": "Point", "coordinates": [ 20.8708491, 48.9122035 ] } },
{ "type": "Feature", "properties": { "osm_id": "773910909", "code": 2734, "fclass": "wayside_cross", "name": null }, "geometry": { "type": "Point", "coordinates": [ 20.8279903, 48.9013241 ] } },
{ "type": "Feature", "properties": { "osm_id": "773910929", "code": 2734, "fclass": "wayside_cross", "name": "V" }, "geometry": { "type": "Point", "coordinates": [ 20.8682619, 48.9102894 ] } },
{ "type": "Feature", "properties": { "osm_id": "773910934", "code": 2701, "fclass": "tourist_info", "name": "Galmus" }, "geometry": { "type": "Point", "coordinates": [ 20.7252149, 48.8840577 ] } },
{ "type": "Feature", "properties": { "osm_id": "773910972", "code": 2734, "fclass": "wayside_cross", "name": "IX" }, "geometry": { "type": "Point", "coordinates": [ 20.8709421, 48.911565 ] } },
{ "type": "Feature", "properties": { "osm_id": "773910978", "code": 2741, "fclass": "picnic_site", "name": null }, "geometry": { "type": "Point", "coordinates": [ 20.8851489, 48.8965195 ] } },
{ "type": "Feature", "properties": { "osm_id": "773910999", "code": 2734, "fclass": "wayside_cross", "name": "XIII" }, "geometry": { "type": "Point", "coordinates": [ 20.8699977, 48.913228 ] } },
{ "type": "Feature", "properties": { "osm_id": "773911053", "code": 2701, "fclass": "tourist_info", "name": "Galmus" }, "geometry": { "type": "Point", "coordinates": [ 20.8442962, 48.8797266 ] } },
{ "type": "Feature", "properties": { "osm_id": "773911077", "code": 2734, "fclass": "wayside_cross", "name": "VIII" }, "geometry": { "type": "Point", "coordinates": [ 20.8708491, 48.910778 ] } },
{ "type": "Feature", "properties": { "osm_id": "773911080", "code": 2741, "fclass": "picnic_site", "name": null }, "geometry": { "type": "Point", "coordinates": [ 20.8853047, 48.8961613 ] } },
{ "type": "Feature", "properties": { "osm_id": "773911119", "code": 2734, "fclass": "wayside_cross", "name": "IV" }, "geometry": { "type": "Point", "coordinates": [ 20.8688404, 48.9101561 ] } },
{ "type": "Feature", "properties": { "osm_id": "773911123", "code": 2905, "fclass": "hunting_stand", "name": null }, "geometry": { "type": "Point", "coordinates": [ 20.8189474, 48.8942441 ] } },
{ "type": "Feature", "properties": { "osm_id": "773911147", "code": 2734, "fclass": "wayside_cross", "name": "XI" }, "geometry": { "type": "Point", "coordinates": [ 20.8708259, 48.9127005 ] } },
{ "type": "Feature", "properties": { "osm_id": "773911178", "code": 2701, "fclass": "tourist_info", "name": "Poráčska dolina" }, "geometry": { "type": "Point", "coordinates": [ 20.7540477, 48.878955 ] } },
{ "type": "Feature", "properties": { "osm_id": "773911212", "code": 2734, "fclass": "wayside_cross", "name": "VI" }, "geometry": { "type": "Point", "coordinates": [ 20.8694404, 48.9104074 ] } },
{ "type": "Feature", "properties": { "osm_id": "773911213", "code": 2701, "fclass": "tourist_info", "name": "Pod skalou" }, "geometry": { "type": "Point", "coordinates": [ 20.8435267, 48.9140424 ] } },
{ "type": "Feature", "properties": { "osm_id": "773911217", "code": 2741, "fclass": "picnic_site", "name": null }, "geometry": { "type": "Point", "coordinates": [ 20.8765741, 48.9116375 ] } },
{ "type": "Feature", "properties": { "osm_id": "773911226", "code": 2701, "fclass": "tourist_info", "name": "Krompachy, námestie" }, "geometry": { "type": "Point", "coordinates": [ 20.8734468, 48.9106632 ] } },
{ "type": "Feature", "properties": { "osm_id": "773976854", "code": 2701, "fclass": "tourist_info", "name": "Olše (rázcestie)" }, "geometry": { "type": "Point", "coordinates": [ 20.6536659, 48.9064193 ] } },
{ "type": "Feature", "properties": { "osm_id": "773976871", "code": 2701, "fclass": "tourist_info", "name": "Chrasť nad Hornádom" }, "geometry": { "type": "Point", "coordinates": [ 20.6988235, 48.9250854 ] } },
{ "type": "Feature", "properties": { "osm_id": "774464968", "code": 2302, "fclass": "fast_food", "name": "Hot Pot" }, "geometry": { "type": "Point", "coordinates": [ 20.5710167, 49.0130192 ] } },