{
"type": "FeatureCollection",
"name": "26_slr_acc_fb",
"crs": { "type": "name", "properties": { "name": "urn:ogc:def:crs:OGC:1.3:CRS84" } },
"features": [
{ "type": "Feature", "properties": { "level_0": 67, "index": 0, "checkins": 1.0, "city": "Palcmanska Masa", "country": "Slovakia", "id": "851736681862149", "is_verified": false, "latitude": 48.85316, "likes_n": 0.0, "located_in": null, "longitude": 20.3868, "name": "Penzión Salamander", "rating_count": "0.0", "street": "Palcmanská Maša", "website": "http://www.penzion-salamander.sk", "zip": "053 76", "district_id": 810, "region_id": 8, "municipality_id": 543357, "district_name": "Spišská Nová Ves", "region_name": "Košický", "municipality_name": "Mlynky", "src": "Facebook Places" }, "geometry": { "type": "Point", "coordinates": [ 20.3868, 48.85316 ] } },
{ "type": "Feature", "properties": { "level_0": 408, "index": 0, "checkins": 13.0, "city": "Smizany", "country": "Slovakia", "id": "2134061650249885", "is_verified": false, "latitude": 48.93697, "likes_n": 54.0, "located_in": null, "longitude": 20.51233, "name": "Stag house - Jelení dom", "rating_count": "1.0", "street": "Košiarny briežok 628,", "website": "https://www.megaubytovanie.sk/stag-house-jeleni-dom", "zip": "053 11", "district_id": 810, "region_id": 8, "municipality_id": 560154, "district_name": "Spišská Nová Ves", "region_name": "Košický", "municipality_name": "Smižany", "src": "Facebook Places" }, "geometry": { "type": "Point", "coordinates": [ 20.51233, 48.93697 ] } },
{ "type": "Feature", "properties": { "level_0": 174, "index": 0, "checkins": 72.0, "city": "Roznava", "country": "Slovakia", "id": "131944326966765", "is_verified": false, "latitude": 48.649520629000001, "likes_n": 962.0, "located_in": null, "longitude": 20.528829008, "name": "Selfness Rožňava", "rating_count": "10.0", "street": "Kasárenská 36", "website": "www.hotelroznava.sk", "zip": "04801", "district_id": 808, "region_id": 8, "municipality_id": 525529, "district_name": "Rožňava", "region_name": "Košický", "municipality_name": "Rožňava", "src": "Facebook Places" }, "geometry": { "type": "Point", "coordinates": [ 20.528829008, 48.649520629 ] } },
{ "type": "Feature", "properties": { "level_0": 46, "index": 0, "checkins": 459.0, "city": "Kosice", "country": "Slovakia", "id": "10150134513136940", "is_verified": false, "latitude": 48.741415686327997, "likes_n": 779.0, "located_in": null, "longitude": 21.254626709132001, "name": "City Hotel Košice", "rating_count": "58.0", "street": "Vodárenská 6", "website": "http://www.cityhotelkosice.sk", "zip": "040 01", "district_id": 802, "region_id": 8, "municipality_id": 598151, "district_name": "Košice I", "region_name": "Košický", "municipality_name": "Košice-Sever", "src": "Facebook Places" }, "geometry": { "type": "Point", "coordinates": [ 21.254626709132001, 48.741415686327997 ] } },
{ "type": "Feature", "properties": { "level_0": 422, "index": 0, "checkins": 15.0, "city": "Spisska Nova Ves", "country": "Slovakia", "id": "177856218947394", "is_verified": false, "latitude": 48.91972, "likes_n": 180.0, "located_in": null, "longitude": 20.53997, "name": "Privát Spiš - ubytovanie", "rating_count": "10.0", "street": "Spišská 3", "website": "www.penzionspis.sk", "zip": "05201", "district_id": 810, "region_id": 8, "municipality_id": 526355, "district_name": "Spišská Nová Ves", "region_name": "Košický", "municipality_name": "Spišská Nová Ves", "src": "Facebook Places" }, "geometry": { "type": "Point", "coordinates": [ 20.53997, 48.91972 ] } },
{ "type": "Feature", "properties": { "level_0": 87, "index": 0, "checkins": 23.0, "city": "Kosice", "country": "Slovakia", "id": "10152792155522275", "is_verified": false, "latitude": 48.7211, "likes_n": 1302.0, "located_in": null, "longitude": 21.2575, "name": "Career International", "rating_count": "6.0", "street": null, "website": "http://www.PracavUSA.com, e-mail: info@pracavusa.cm", "zip": null, "district_id": 802, "region_id": 8, "municipality_id": 598186, "district_name": "Košice I", "region_name": "Košický", "municipality_name": "Košice-Staré Mesto", "src": "Facebook Places" }, "geometry": { "type": "Point", "coordinates": [ 21.2575, 48.7211 ] } },
{ "type": "Feature", "properties": { "level_0": 95, "index": 0, "checkins": 115.0, "city": "Kosice", "country": "Slovakia", "id": "672025319537025", "is_verified": false, "latitude": 48.726, "likes_n": 152.0, "located_in": null, "longitude": 21.26037, "name": "Košice Hostel", "rating_count": "16.0", "street": "Jesenského 20", "website": "http://www.kosicehostel.sk", "zip": "040 01", "district_id": 802, "region_id": 8, "municipality_id": 598186, "district_name": "Košice I", "region_name": "Košický", "municipality_name": "Košice-Staré Mesto", "src": "Facebook Places" }, "geometry": { "type": "Point", "coordinates": [ 21.26037, 48.726 ] } },
{ "type": "Feature", "properties": { "level_0": 96, "index": 0, "checkins": 7.0, "city": "Mala Trna", "country": "Slovakia", "id": "1399607036917462", "is_verified": false, "latitude": 48.721652611292001, "likes_n": 427.0, "located_in": null, "longitude": 21.244997654801999, "name": "Ubytovanie v Tokaji - Gazdovská pivnica", "rating_count": "8.0", "street": "Kostolná 32/6", "website": "http://www.levneubytovani.net/ubytovani/lino-mala-trna/?fb_action_ids=1084679341560398&fb_action_types=og.likes", "zip": "07682", "district_id": 802, "region_id": 8, "municipality_id": 598186, "district_name": "Košice I", "region_name": "Košický", "municipality_name": "Košice-Staré Mesto", "src": "Facebook Places" }, "geometry": { "type": "Point", "coordinates": [ 21.244997654801999, 48.721652611292001 ] } },
{ "type": "Feature", "properties": { "level_0": 94, "index": 0, "checkins": 22.0, "city": "Kosice", "country": "Slovakia", "id": "1511480039120191", "is_verified": false, "latitude": 48.7211, "likes_n": 564.0, "located_in": null, "longitude": 21.2575, "name": "Vilka Natali - Hajdúszoboszló", "rating_count": "NaN", "street": null, "website": "http://www.vilkanatali.weebly.com", "zip": null, "district_id": 802, "region_id": 8, "municipality_id": 598186, "district_name": "Košice I", "region_name": "Košický", "municipality_name": "Košice-Staré Mesto", "src": "Facebook Places" }, "geometry": { "type": "Point", "coordinates": [ 21.2575, 48.7211 ] } },
{ "type": "Feature", "properties": { "level_0": 176, "index": 0, "checkins": 4.0, "city": "Krásnohorská Dlhá Lúka", "country": "Slovakia", "id": "395963360453549", "is_verified": false, "latitude": 48.62602, "likes_n": 137.0, "located_in": null, "longitude": 20.58045, "name": "Penzión Bernáth Panzió", "rating_count": "5.0", "street": "219", "website": "http://www.penzionbernath.sk", "zip": "049 45", "district_id": 808, "region_id": 8, "municipality_id": 525863, "district_name": "Rožňava", "region_name": "Košický", "municipality_name": "Krásnohorská Dlhá Lúka", "src": "Facebook Places" }, "geometry": { "type": "Point", "coordinates": [ 20.58045, 48.62602 ] } },
{ "type": "Feature", "properties": { "level_0": 314, "index": 0, "checkins": 16.0, "city": "Hrabusice", "country": "Slovakia", "id": "156105397818794", "is_verified": false, "latitude": 48.97715, "likes_n": 88.0, "located_in": null, "longitude": 20.41196, "name": "Ubytovanie Ascona", "rating_count": "3.0", "street": "Hlavná 97", "website": "http://www.ascona.sk", "zip": "053 15", "district_id": 810, "region_id": 8, "municipality_id": 526592, "district_name": "Spišská Nová Ves", "region_name": "Košický", "municipality_name": "Hrabušice", "src": "Facebook Places" }, "geometry": { "type": "Point", "coordinates": [ 20.41196, 48.97715 ] } },
{ "type": "Feature", "properties": { "level_0": 475, "index": 0, "checkins": 27.0, "city": "Smizany", "country": "Slovakia", "id": "246671695884551", "is_verified": false, "latitude": 48.95443, "likes_n": 199.0, "located_in": null, "longitude": 20.53028, "name": "Reštaurácia Stefani", "rating_count": "0.0", "street": "Tatranská 393", "website": "http://www.cingov.com/", "zip": "053 11", "district_id": 810, "region_id": 8, "municipality_id": 560154, "district_name": "Spišská Nová Ves", "region_name": "Košický", "municipality_name": "Smižany", "src": "Facebook Places" }, "geometry": { "type": "Point", "coordinates": [ 20.53028, 48.95443 ] } },
{ "type": "Feature", "properties": { "level_0": 484, "index": 0, "checkins": 21.0, "city": "Spisska Nova Ves", "country": "Slovakia", "id": "10150456949705916", "is_verified": false, "latitude": 48.93769, "likes_n": 53.0, "located_in": null, "longitude": 20.57409, "name": "Penzión pri mlyne", "rating_count": "0.0", "street": "Mlynská 31", "website": "http://www.pbenergas.sk", "zip": "052 01", "district_id": 810, "region_id": 8, "municipality_id": 526355, "district_name": "Spišská Nová Ves", "region_name": "Košický", "municipality_name": "Spišská Nová Ves", "src": "Facebook Places" }, "geometry": { "type": "Point", "coordinates": [ 20.57409, 48.93769 ] } },
{ "type": "Feature", "properties": { "level_0": 340, "index": 0, "checkins": 113.0, "city": "Spisska Nova Ves", "country": "Slovakia", "id": "749592895134901", "is_verified": false, "latitude": 48.861219954092, "likes_n": 324.0, "located_in": null, "longitude": 20.550076497873999, "name": "Banská klopačka", "rating_count": "20.0", "street": "Hnilčík 2027, Spišská Nová Ves", "website": "http://www.banskaklopacka.sk", "zip": "05332", "district_id": 810, "region_id": 8, "municipality_id": 526576, "district_name": "Spišská Nová Ves", "region_name": "Košický", "municipality_name": "Hnilčík", "src": "Facebook Places" }, "geometry": { "type": "Point", "coordinates": [ 20.550076497873999, 48.861219954092 ] } },
{ "type": "Feature", "properties": { "level_0": 27, "index": 0, "checkins": 213.0, "city": "Kosice", "country": "Slovakia", "id": "635031846585123", "is_verified": false, "latitude": 48.740558074532998, "likes_n": 81.0, "located_in": null, "longitude": 21.243386927774001, "name": "Hotel Štadión Košice", "rating_count": "3.0", "street": "Čermeľská ulica  1", "website": "http://www.lokomotiva.sk", "zip": "040 01", "district_id": 802, "region_id": 8, "municipality_id": 598151, "district_name": "Košice I", "region_name": "Košický", "municipality_name": "Košice-Sever", "src": "Facebook Places" }, "geometry": { "type": "Point", "coordinates": [ 21.243386927774001, 48.740558074532998 ] } },
{ "type": "Feature", "properties": { "level_0": 121, "index": 0, "checkins": 69.0, "city": "Kosice", "country": "Slovakia", "id": "269139303098303", "is_verified": false, "latitude": 48.707229136667998, "likes_n": 6.0, "located_in": null, "longitude": 21.242278208443, "name": "Penzion Set", "rating_count": "3.0", "street": "Trieda SNP 85", "website": "http://www.penzionset.sk", "zip": "040 11", "district_id": 803, "region_id": 8, "municipality_id": 598224, "district_name": "Košice II", "region_name": "Košický", "municipality_name": "Košice-Západ", "src": "Facebook Places" }, "geometry": { "type": "Point", "coordinates": [ 21.242278208443, 48.707229136667998 ] } },
{ "type": "Feature", "properties": { "level_0": 162, "index": 0, "checkins": 1462.0, "city": "Moldava nad Bodvou", "country": "Slovakia", "id": "618720484805009", "is_verified": false, "latitude": 48.609231989000001, "likes_n": 1531.0, "located_in": null, "longitude": 20.979261557000001, "name": "Motel Orgovan", "rating_count": "148.0", "street": "Rožňavská 82", "website": "http://www.orgovan.sk", "zip": "04501", "district_id": 806, "region_id": 8, "municipality_id": 521698, "district_name": "Košice - okolie", "region_name": "Košický", "municipality_name": "Moldava nad Bodvou", "src": "Facebook Places" }, "geometry": { "type": "Point", "coordinates": [ 20.979261557, 48.609231989 ] } },
{ "type": "Feature", "properties": { "level_0": 260, "index": 0, "checkins": 0.0, "city": "Michalovce", "country": "Slovakia", "id": "2414023445543246", "is_verified": false, "latitude": 48.75377, "likes_n": 0.0, "located_in": null, "longitude": 21.90327, "name": "Penzión Biela Labuť", "rating_count": "0.0", "street": "47 Masarykova", "website": "http://www.biela-labut.sk", "zip": "071 01", "district_id": 807, "region_id": 8, "municipality_id": 522279, "district_name": "Michalovce", "region_name": "Košický", "municipality_name": "Michalovce", "src": "Facebook Places" }, "geometry": { "type": "Point", "coordinates": [ 21.90327, 48.75377 ] } },
{ "type": "Feature", "properties": { "level_0": 603, "index": 0, "checkins": 1.0, "city": "Velky Kamenec", "country": "Slovakia", "id": "2094333263953395", "is_verified": false, "latitude": 48.358486, "likes_n": 0.0, "located_in": null, "longitude": 21.80582, "name": "Guesthouse Ilona", "rating_count": "0.0", "street": "Veľký Kamenec", "website": "NaN", "zip": "076 36", "district_id": 811, "region_id": 8, "municipality_id": 543918, "district_name": "Trebišov", "region_name": "Košický", "municipality_name": "Veľký Kamenec", "src": "Facebook Places" }, "geometry": { "type": "Point", "coordinates": [ 21.80582, 48.358486 ] } },
{ "type": "Feature", "properties": { "level_0": 137, "index": 0, "checkins": 19.0, "city": "Roznava", "country": "Slovakia", "id": "960986607282578", "is_verified": false, "latitude": 48.6502, "likes_n": 2017.0, "located_in": null, "longitude": 20.5233, "name": "Penzión Luxury", "rating_count": "3.0", "street": "Šafárikova 17", "website": "http://www.penzionluxury.sk", "zip": "04801", "district_id": 808, "region_id": 8, "municipality_id": 525529, "district_name": "Rožňava", "region_name": "Košický", "municipality_name": "Rožňava", "src": "Facebook Places" }, "geometry": { "type": "Point", "coordinates": [ 20.5233, 48.6502 ] } },
{ "type": "Feature", "properties": { "level_0": 331, "index": 0, "checkins": 5225.0, "city": "Kaluza", "country": "Slovakia", "id": "615534418505783", "is_verified": false, "latitude": 48.807422477311, "likes_n": 4377.0, "located_in": null, "longitude": 22.012073673263998, "name": "Hotel GLAMOUR", "rating_count": "161.0", "street": "Kaluža 744", "website": "http://www.hotelglamour.sk", "zip": "07236", "district_id": 807, "region_id": 8, "municipality_id": 522589, "district_name": "Michalovce", "region_name": "Košický", "municipality_name": "Kaluža", "src": "Facebook Places" }, "geometry": { "type": "Point", "coordinates": [ 22.012073673263998, 48.807422477311 ] } },
{ "type": "Feature", "properties": { "level_0": 288, "index": 0, "checkins": 63.0, "city": "Dedinky", "country": "Slovakia", "id": "252210778668664", "is_verified": false, "latitude": 48.86271029257, "likes_n": 268.0, "located_in": null, "longitude": 20.38779258728, "name": "Chata Dedinky", "rating_count": "11.0", "street": "Dedinky 145", "website": "http://www.chatadedinky.sk", "zip": "049 73", "district_id": 808, "region_id": 8, "municipality_id": 525618, "district_name": "Rožňava", "region_name": "Košický", "municipality_name": "Dedinky", "src": "Facebook Places" }, "geometry": { "type": "Point", "coordinates": [ 20.38779258728, 48.86271029257 ] } },
{ "type": "Feature", "properties": { "level_0": 79, "index": 0, "checkins": 96.0, "city": "Kosice", "country": "Slovakia", "id": "200977809995421", "is_verified": false, "latitude": 48.629346655496001, "likes_n": 54.0, "located_in": null, "longitude": 21.172154585592001, "name": "Hotel Ferum", "rating_count": "4.0", "street": "Železiarenská 49", "website": "www.ferum.sk", "zip": "04015", "district_id": 803, "region_id": 8, "municipality_id": 599841, "district_name": "Košice II", "region_name": "Košický", "municipality_name": "Košice-Šaca", "src": "Facebook Places" }, "geometry": { "type": "Point", "coordinates": [ 21.172154585592001, 48.629346655496001 ] } },
{ "type": "Feature", "properties": { "level_0": 131, "index": 0, "checkins": 114.0, "city": "Kosice", "country": "Slovakia", "id": "386109024904541", "is_verified": false, "latitude": 48.71812, "likes_n": 239.0, "located_in": null, "longitude": 21.25353, "name": "Restaurant Hotel TeleDom Košice", "rating_count": "3.0", "street": "Timonova 27", "website": "http://www.restaurant.teledom.sk", "zip": "04001", "district_id": 802, "region_id": 8, "municipality_id": 598186, "district_name": "Košice I", "region_name": "Košický", "municipality_name": "Košice-Staré Mesto", "src": "Facebook Places" }, "geometry": { "type": "Point", "coordinates": [ 21.25353, 48.71812 ] } },
{ "type": "Feature", "properties": { "level_0": 130, "index": 0, "checkins": 465.0, "city": "Kosice", "country": "Slovakia", "id": "170615592994189", "is_verified": false, "latitude": 48.71812, "likes_n": 170.0, "located_in": null, "longitude": 21.25353, "name": "Teledom Hotel & Conference Center", "rating_count": "22.0", "street": "Timonova 27", "website": "http://www.hotelteledom.sk/", "zip": "04001", "district_id": 802, "region_id": 8, "municipality_id": 598186, "district_name": "Košice I", "region_name": "Košický", "municipality_name": "Košice-Staré Mesto", "src": "Facebook Places" }, "geometry": { "type": "Point", "coordinates": [ 21.25353, 48.71812 ] } },
{ "type": "Feature", "properties": { "level_0": 104, "index": 0, "checkins": 3058.0, "city": "Kosice", "country": "Slovakia", "id": "273825812748884", "is_verified": false, "latitude": 48.697241715048001, "likes_n": 1545.0, "located_in": null, "longitude": 21.235580055042998, "name": "Košice Hotel", "rating_count": "132.0", "street": "Moldavská cesta II. 51/2414", "website": "http://www.kosicehotel.sk, https://www.youtube.com/channel/UCU0ufUIRFNnbvK3z0xhgNzw", "zip": "040 01", "district_id": 803, "region_id": 8, "municipality_id": 598224, "district_name": "Košice II", "region_name": "Košický", "municipality_name": "Košice-Západ", "src": "Facebook Places" }, "geometry": { "type": "Point", "coordinates": [ 21.235580055042998, 48.697241715048001 ] } },
{ "type": "Feature", "properties": { "level_0": 105, "index": 0, "checkins": 195.0, "city": "Kosice", "country": "Slovakia", "id": "159781044086325", "is_verified": false, "latitude": 48.699365924856998, "likes_n": 40.0, "located_in": null, "longitude": 21.249728261594001, "name": "Hotel Muza", "rating_count": "10.0", "street": "Pri prachárni 5", "website": "www.muza.sk", "zip": "04011", "district_id": 805, "region_id": 8, "municipality_id": 599824, "district_name": "Košice IV", "region_name": "Košický", "municipality_name": "Košice-Juh", "src": "Facebook Places" }, "geometry": { "type": "Point", "coordinates": [ 21.249728261594001, 48.699365924856998 ] } },
{ "type": "Feature", "properties": { "level_0": 578, "index": 0, "checkins": 177.0, "city": "Velka Trna", "country": "Slovakia", "id": "255391544600614", "is_verified": false, "latitude": 48.467895106143999, "likes_n": 793.0, "located_in": null, "longitude": 21.682441693114999, "name": "Ubytovanie \"Na chalupe\" - Tokaj - Veľká Tŕňa", "rating_count": "27.0", "street": "Obchodna 134/12", "website": "http://www.tokaj-ubytovanie.sk", "zip": "076 82", "district_id": 811, "region_id": 8, "municipality_id": 513806, "district_name": "Trebišov", "region_name": "Košický", "municipality_name": "Veľká Tŕňa", "src": "Facebook Places" }, "geometry": { "type": "Point", "coordinates": [ 21.682441693114999, 48.467895106143999 ] } },
{ "type": "Feature", "properties": { "level_0": 15, "index": 0, "checkins": 146.0, "city": "Krompachy", "country": "Slovakia", "id": "208314742519648", "is_verified": false, "latitude": 48.905715456880003, "likes_n": 35.0, "located_in": null, "longitude": 20.891531771935, "name": "Hotel Plejsy", "rating_count": "45.0", "street": "Cintorínska 1173/3", "website": "http://www.hotelplejsy.sk", "zip": "05342", "district_id": 810, "region_id": 8, "municipality_id": 543268, "district_name": "Spišská Nová Ves", "region_name": "Košický", "municipality_name": "Krompachy", "src": "Facebook Places" }, "geometry": { "type": "Point", "coordinates": [ 20.891531771935, 48.905715456880003 ] } },
{ "type": "Feature", "properties": { "level_0": 16, "index": 0, "checkins": 126.0, "city": "Gelnica", "country": "Slovakia", "id": "160116894166525", "is_verified": false, "latitude": 48.85995, "likes_n": 722.0, "located_in": null, "longitude": 20.90867, "name": "Penzión Erihof", "rating_count": "14.0", "street": "Thurzovská 1822", "website": "http://www.erihof.sk", "zip": "056 01", "district_id": 801, "region_id": 8, "municipality_id": 526509, "district_name": "Gelnica", "region_name": "Košický", "municipality_name": "Gelnica", "src": "Facebook Places" }, "geometry": { "type": "Point", "coordinates": [ 20.90867, 48.85995 ] } },
{ "type": "Feature", "properties": { "level_0": 157, "index": 0, "checkins": 0.0, "city": "Medzev", "country": "Slovakia", "id": "802947850077752", "is_verified": false, "latitude": 48.70014, "likes_n": 0.0, "located_in": null, "longitude": 20.89322, "name": "Penzion Helion", "rating_count": "0.0", "street": "37 Mariánske námestie", "website": "http://www.penzionhelion.sk", "zip": "044 25", "district_id": 806, "region_id": 8, "municipality_id": 521671, "district_name": "Košice - okolie", "region_name": "Košický", "municipality_name": "Medzev", "src": "Facebook Places" }, "geometry": { "type": "Point", "coordinates": [ 20.89322, 48.70014 ] } },
{ "type": "Feature", "properties": { "level_0": 158, "index": 0, "checkins": 2.0, "city": "Jasov", "country": "Slovakia", "id": "209978359518578", "is_verified": false, "latitude": 48.679883773484001, "likes_n": 0.0, "located_in": null, "longitude": 20.967308236306, "name": "Jasova Autocamping", "rating_count": "0.0", "street": null, "website": "NaN", "zip": null, "district_id": 806, "region_id": 8, "municipality_id": 521493, "district_name": "Košice - okolie", "region_name": "Košický", "municipality_name": "Jasov", "src": "Facebook Places" }, "geometry": { "type": "Point", "coordinates": [ 20.967308236306, 48.679883773484001 ] } },
{ "type": "Feature", "properties": { "level_0": 164, "index": 0, "checkins": 992.0, "city": "Jasov", "country": "Slovakia", "id": "873869006034894", "is_verified": false, "latitude": 48.680352992308997, "likes_n": 871.0, "located_in": null, "longitude": 20.966494335387999, "name": "Autokemping Jasov", "rating_count": "55.0", "street": "Podzámok 134/61", "website": "https://www.autokempingjasov.sk/", "zip": "044 23", "district_id": 806, "region_id": 8, "municipality_id": 521493, "district_name": "Košice - okolie", "region_name": "Košický", "municipality_name": "Jasov", "src": "Facebook Places" }, "geometry": { "type": "Point", "coordinates": [ 20.966494335387999, 48.680352992308997 ] } },
{ "type": "Feature", "properties": { "level_0": 80, "index": 0, "checkins": 3.0, "city": "Kosice", "country": "Slovakia", "id": "815138138833055", "is_verified": false, "latitude": 48.629352182250997, "likes_n": 0.0, "located_in": null, "longitude": 21.172131920232999, "name": "Hotel Ferum", "rating_count": "0.0", "street": "Železiarenská 501/49", "website": "http://www.ferum.sk/", "zip": "040 15", "district_id": 803, "region_id": 8, "municipality_id": 599841, "district_name": "Košice II", "region_name": "Košický", "municipality_name": "Košice-Šaca", "src": "Facebook Places" }, "geometry": { "type": "Point", "coordinates": [ 21.172131920232999, 48.629352182250997 ] } },
{ "type": "Feature", "properties": { "level_0": 190, "index": 0, "checkins": 3181.0, "city": "Kosicka Bela", "country": "Slovakia", "id": "1031216750262410", "is_verified": false, "latitude": 48.827456647292998, "likes_n": 2172.0, "located_in": null, "longitude": 21.081916615088002, "name": "Hotel & wellness Lesanka, Košice - Ružín", "rating_count": "117.0", "street": "Košická Belá 1160", "website": "http://www.hotel-lesanka.sk", "zip": "04465", "district_id": 806, "region_id": 8, "municipality_id": 521574, "district_name": "Košice - okolie", "region_name": "Košický", "municipality_name": "Košická Belá", "src": "Facebook Places" }, "geometry": { "type": "Point", "coordinates": [ 21.081916615088002, 48.827456647292998 ] } },
{ "type": "Feature", "properties": { "level_0": 197, "index": 0, "checkins": 272.0, "city": "Kosice", "country": "Slovakia", "id": "473042839376225", "is_verified": false, "latitude": 48.71960562, "likes_n": 16.0, "located_in": null, "longitude": 21.18072773, "name": "Myslava Maša", "rating_count": "0.0", "street": "Myslavská 705", "website": "NaN", "zip": "04016", "district_id": 806, "region_id": 8, "municipality_id": 521159, "district_name": "Košice - okolie", "region_name": "Košický", "municipality_name": "Baška", "src": "Facebook Places" }, "geometry": { "type": "Point", "coordinates": [ 21.18072773, 48.71960562 ] } },
{ "type": "Feature", "properties": { "level_0": 184, "index": 0, "checkins": 308.0, "city": "Kosicka Bela", "country": "Slovakia", "id": "495142057235231", "is_verified": false, "latitude": 48.786028684199003, "likes_n": 78.0, "located_in": null, "longitude": 21.126284892304, "name": "Hotel Garden Košice", "rating_count": "13.0", "street": "Košická Belá 220", "website": "http://www.hotelgarden.sk", "zip": "044 65", "district_id": 806, "region_id": 8, "municipality_id": 521574, "district_name": "Košice - okolie", "region_name": "Košický", "municipality_name": "Košická Belá", "src": "Facebook Places" }, "geometry": { "type": "Point", "coordinates": [ 21.126284892304, 48.786028684199003 ] } },
{ "type": "Feature", "properties": { "level_0": 200, "index": 0, "checkins": 89.0, "city": "Kosice", "country": "Slovakia", "id": "125460727540277", "is_verified": false, "latitude": 48.71392756, "likes_n": 5.0, "located_in": null, "longitude": 21.2076103, "name": "Hotel Jasmin", "rating_count": "6.0", "street": null, "website": "NaN", "zip": null, "district_id": 803, "region_id": 8, "municipality_id": 598216, "district_name": "Košice II", "region_name": "Košický", "municipality_name": "Košice-Myslava", "src": "Facebook Places" }, "geometry": { "type": "Point", "coordinates": [ 21.2076103, 48.71392756 ] } },
{ "type": "Feature", "properties": { "level_0": 506, "index": 0, "checkins": 58.0, "city": "Krompachy", "country": "Slovakia", "id": "585155111518294", "is_verified": false, "latitude": 48.91619, "likes_n": 393.0, "located_in": null, "longitude": 20.87862, "name": "Chalupy EFENDY", "rating_count": "7.0", "street": "Veterná 30", "website": "www.chalupyefendy.sk", "zip": "053 42", "district_id": 810, "region_id": 8, "municipality_id": 543268, "district_name": "Spišská Nová Ves", "region_name": "Košický", "municipality_name": "Krompachy", "src": "Facebook Places" }, "geometry": { "type": "Point", "coordinates": [ 20.87862, 48.91619 ] } },
{ "type": "Feature", "properties": { "level_0": 283, "index": 0, "checkins": 352.0, "city": "Michalovce", "country": "Slovakia", "id": "198141200232451", "is_verified": false, "latitude": 48.757235109200003, "likes_n": 44.0, "located_in": null, "longitude": 21.922598570400002, "name": "Hotel Druzba Michalovce", "rating_count": "8.0", "street": null, "website": "NaN", "zip": "07101", "district_id": 807, "region_id": 8, "municipality_id": 522279, "district_name": "Michalovce", "region_name": "Košický", "municipality_name": "Michalovce", "src": "Facebook Places" }, "geometry": { "type": "Point", "coordinates": [ 21.922598570400002, 48.757235109200003 ] } },
{ "type": "Feature", "properties": { "level_0": 287, "index": 0, "checkins": 1234.0, "city": "Kaluza", "country": "Slovakia", "id": "981498331904405", "is_verified": false, "latitude": 48.799575697095001, "likes_n": 2883.0, "located_in": null, "longitude": 21.998282493588999, "name": "Penzión ANIMA", "rating_count": "73.0", "street": "Medvedia Hora 5000", "website": "http://www.penzionanima.sk", "zip": "07236", "district_id": 807, "region_id": 8, "municipality_id": 523259, "district_name": "Michalovce", "region_name": "Košický", "municipality_name": "Vinné", "src": "Facebook Places" }, "geometry": { "type": "Point", "coordinates": [ 21.998282493588999, 48.799575697095001 ] } },
{ "type": "Feature", "properties": { "level_0": 282, "index": 0, "checkins": 213.0, "city": "Vinné", "country": "Slovakia", "id": "858405204249536", "is_verified": false, "latitude": 48.77425, "likes_n": 208.0, "located_in": null, "longitude": 21.94685, "name": "Chata u Janka - Vinne Jazero", "rating_count": "2.0", "street": "Vinianske Jazero", "website": "http://www.uJanka.sirava.sk", "zip": "072 31", "district_id": 807, "region_id": 8, "municipality_id": 523259, "district_name": "Michalovce", "region_name": "Košický", "municipality_name": "Vinné", "src": "Facebook Places" }, "geometry": { "type": "Point", "coordinates": [ 21.94685, 48.77425 ] } },
{ "type": "Feature", "properties": { "level_0": 297, "index": 0, "checkins": 6.0, "city": "Vinné", "country": "Slovakia", "id": "196054977679874", "is_verified": false, "latitude": 48.817263540563999, "likes_n": 3252.0, "located_in": null, "longitude": 21.984758377075, "name": "Hotel Vinnay", "rating_count": "13.0", "street": "Vinianske jazero", "website": "www.hotelvinnay.sk", "zip": "07231", "district_id": 807, "region_id": 8, "municipality_id": 523259, "district_name": "Michalovce", "region_name": "Košický", "municipality_name": "Vinné", "src": "Facebook Places" }, "geometry": { "type": "Point", "coordinates": [ 21.984758377075, 48.817263540563999 ] } },
{ "type": "Feature", "properties": { "level_0": 82, "index": 0, "checkins": 5.0, "city": "Malá Ida", "country": "Slovakia", "id": "275702889234117", "is_verified": false, "latitude": 48.67645709, "likes_n": 0.0, "located_in": null, "longitude": 21.17044681, "name": "Wedding Hotel", "rating_count": "0.0", "street": null, "website": "NaN", "zip": "04420", "district_id": 806, "region_id": 8, "municipality_id": 521655, "district_name": "Košice - okolie", "region_name": "Košický", "municipality_name": "Malá Ida", "src": "Facebook Places" }, "geometry": { "type": "Point", "coordinates": [ 21.17044681, 48.67645709 ] } },
{ "type": "Feature", "properties": { "level_0": 106, "index": 0, "checkins": 105.0, "city": "Kosice", "country": "Slovakia", "id": "1606400519576776", "is_verified": false, "latitude": 48.699310679024002, "likes_n": 256.0, "located_in": null, "longitude": 21.249691703084999, "name": "Hotel Múza/ MihalGallery- Andy Warhol", "rating_count": "7.0", "street": "Pri prachárni 5", "website": "www.hotelmuza.sk", "zip": "040 11", "district_id": 805, "region_id": 8, "municipality_id": 599824, "district_name": "Košice IV", "region_name": "Košický", "municipality_name": "Košice-Juh", "src": "Facebook Places" }, "geometry": { "type": "Point", "coordinates": [ 21.249691703084999, 48.699310679024002 ] } },
{ "type": "Feature", "properties": { "level_0": 107, "index": 0, "checkins": 554.0, "city": "Kosice", "country": "Slovakia", "id": "206352889430243", "is_verified": false, "latitude": 48.705579639347, "likes_n": 167.0, "located_in": null, "longitude": 21.244689716313001, "name": "Hotel Privilege ****", "rating_count": "28.0", "street": "Werferova 3", "website": "http://privilege.sk/", "zip": "04011", "district_id": 803, "region_id": 8, "municipality_id": 598224, "district_name": "Košice II", "region_name": "Košický", "municipality_name": "Košice-Západ", "src": "Facebook Places" }, "geometry": { "type": "Point", "coordinates": [ 21.244689716313001, 48.705579639347 ] } },
{ "type": "Feature", "properties": { "level_0": 302, "index": 0, "checkins": 348.0, "city": "Kaluza", "country": "Slovakia", "id": "842596719143498", "is_verified": false, "latitude": 48.808923587597, "likes_n": 7005.0, "located_in": null, "longitude": 22.012158924316999, "name": "Motel Kamenec - Spoločenské akcie", "rating_count": "29.0", "street": "Kaluža 225", "website": "http://www.motelkamenec.com , www.motelkamenec.eu", "zip": "07236", "district_id": 807, "region_id": 8, "municipality_id": 522589, "district_name": "Michalovce", "region_name": "Košický", "municipality_name": "Kaluža", "src": "Facebook Places" }, "geometry": { "type": "Point", "coordinates": [ 22.012158924316999, 48.808923587597 ] } },
{ "type": "Feature", "properties": { "level_0": 304, "index": 0, "checkins": 286.0, "city": "Vinné", "country": "Slovakia", "id": "327960734020213", "is_verified": false, "latitude": 48.819000409306, "likes_n": 58.0, "located_in": null, "longitude": 21.984377598510001, "name": "Penzion Pramen", "rating_count": "9.0", "street": null, "website": "http://www.penzionpramen.sk/", "zip": "07231", "district_id": 807, "region_id": 8, "municipality_id": 523259, "district_name": "Michalovce", "region_name": "Košický", "municipality_name": "Vinné", "src": "Facebook Places" }, "geometry": { "type": "Point", "coordinates": [ 21.984377598510001, 48.819000409306 ] } },
{ "type": "Feature", "properties": { "level_0": 311, "index": 0, "checkins": 40.0, "city": "Kaluza", "country": "Slovakia", "id": "283276465637482", "is_verified": false, "latitude": 48.8121618, "likes_n": 1.0, "located_in": null, "longitude": 22.0089441, "name": "Hotel Postar", "rating_count": "0.0", "street": null, "website": "NaN", "zip": "072 36", "district_id": 807, "region_id": 8, "municipality_id": 522589, "district_name": "Michalovce", "region_name": "Košický", "municipality_name": "Kaluža", "src": "Facebook Places" }, "geometry": { "type": "Point", "coordinates": [ 22.0089441, 48.8121618 ] } },
{ "type": "Feature", "properties": { "level_0": 310, "index": 0, "checkins": 9.0, "city": "Vinné", "country": "Slovakia", "id": "110000626095246", "is_verified": false, "latitude": 48.8167, "likes_n": 280.0, "located_in": null, "longitude": 21.9667, "name": "Penzión Lúč", "rating_count": "4.0", "street": "Zemplínska Šírava časť Hôrka", "website": "http://www.PenzionLuc.sirava.sk", "zip": "072 31", "district_id": 807, "region_id": 8, "municipality_id": 523259, "district_name": "Michalovce", "region_name": "Košický", "municipality_name": "Vinné", "src": "Facebook Places" }, "geometry": { "type": "Point", "coordinates": [ 21.9667, 48.8167 ] } },
{ "type": "Feature", "properties": { "level_0": 120, "index": 0, "checkins": 1695.0, "city": "Kosice", "country": "Slovakia", "id": "201525843221187", "is_verified": false, "latitude": 48.726546936067997, "likes_n": 2197.0, "located_in": null, "longitude": 21.263809624888001, "name": "Dalia Hotel Kosice, Slovakia", "rating_count": "116.0", "street": "Lofflerova 1", "website": "www.hoteldalia.sk", "zip": "04001", "district_id": 802, "region_id": 8, "municipality_id": 598186, "district_name": "Košice I", "region_name": "Košický", "municipality_name": "Košice-Staré Mesto", "src": "Facebook Places" }, "geometry": { "type": "Point", "coordinates": [ 21.263809624888001, 48.726546936067997 ] } },
{ "type": "Feature", "properties": { "level_0": 119, "index": 0, "checkins": 1257.0, "city": "Kosice", "country": "Slovakia", "id": "10150164049944261", "is_verified": false, "latitude": 48.72487, "likes_n": 1901.0, "located_in": null, "longitude": 21.25602, "name": "Hotel Ambassador", "rating_count": "69.0", "street": "Hlavná 101", "website": "www.ambassador.sk", "zip": "040 01", "district_id": 802, "region_id": 8, "municipality_id": 598186, "district_name": "Košice I", "region_name": "Košický", "municipality_name": "Košice-Staré Mesto", "src": "Facebook Places" }, "geometry": { "type": "Point", "coordinates": [ 21.25602, 48.72487 ] } },
{ "type": "Feature", "properties": { "level_0": 175, "index": 0, "checkins": 2656.0, "city": "Kosicka Bela", "country": "Slovakia", "id": "158231400964925", "is_verified": false, "latitude": 48.785759857523999, "likes_n": 1587.0, "located_in": null, "longitude": 21.128718234093999, "name": "DAM Hotel", "rating_count": "86.0", "street": "Košická Belá 220", "website": "http://www.hoteldam.sk", "zip": "04465", "district_id": 806, "region_id": 8, "municipality_id": 521574, "district_name": "Košice - okolie", "region_name": "Košický", "municipality_name": "Košická Belá", "src": "Facebook Places" }, "geometry": { "type": "Point", "coordinates": [ 21.128718234093999, 48.785759857523999 ] } },
{ "type": "Feature", "properties": { "level_0": 178, "index": 0, "checkins": 51.0, "city": "Kosicka Bela", "country": "Slovakia", "id": "2256355817794591", "is_verified": false, "latitude": 48.785873037286002, "likes_n": 2157.0, "located_in": null, "longitude": 21.126472949981999, "name": "Hotel Garden 2019", "rating_count": "23.0", "street": "Hotel Garden", "website": "www.gardenhotel.sk", "zip": "04465", "district_id": 806, "region_id": 8, "municipality_id": 521574, "district_name": "Košice - okolie", "region_name": "Košický", "municipality_name": "Košická Belá", "src": "Facebook Places" }, "geometry": { "type": "Point", "coordinates": [ 21.126472949981999, 48.785873037286002 ] } },
{ "type": "Feature", "properties": { "level_0": 592, "index": 0, "checkins": 262.0, "city": "Secovce", "country": "Slovakia", "id": "360539580687008", "is_verified": false, "latitude": 48.700244358, "likes_n": 23.0, "located_in": null, "longitude": 21.653258714, "name": "Penzion St. Nicolaus", "rating_count": "5.0", "street": "SNP 67", "website": "http://www.penzionstnicolaus.sk/", "zip": "07801", "district_id": 811, "region_id": 8, "municipality_id": 528722, "district_name": "Trebišov", "region_name": "Košický", "municipality_name": "Sečovce", "src": "Facebook Places" }, "geometry": { "type": "Point", "coordinates": [ 21.653258714, 48.700244358 ] } },
{ "type": "Feature", "properties": { "level_0": 238, "index": 0, "checkins": 1.0, "city": "Michalovce", "country": "Slovakia", "id": "229301927263047", "is_verified": false, "latitude": 48.75621, "likes_n": 0.0, "located_in": null, "longitude": 21.91556, "name": "Hotel Barrique", "rating_count": "0.0", "street": "Duklianska 1", "website": "https://www.caffebarrique.sk", "zip": "07101", "district_id": 807, "region_id": 8, "municipality_id": 522279, "district_name": "Michalovce", "region_name": "Košický", "municipality_name": "Michalovce", "src": "Facebook Places" }, "geometry": { "type": "Point", "coordinates": [ 21.91556, 48.75621 ] } },
{ "type": "Feature", "properties": { "level_0": 239, "index": 0, "checkins": 21.0, "city": "Strazske", "country": "Slovakia", "id": "228684627217668", "is_verified": false, "latitude": 48.87176, "likes_n": 231.0, "located_in": null, "longitude": 21.83039, "name": "Ubytovňa BaHamy Strážske", "rating_count": "10.0", "street": "Mierova 727", "website": "http://www.broadwayclub.wbl.sk/Ubytovanie-Strazske--Ubytovna-BaHamy.html", "zip": "07222", "district_id": 807, "region_id": 8, "municipality_id": 523101, "district_name": "Michalovce", "region_name": "Košický", "municipality_name": "Strážske", "src": "Facebook Places" }, "geometry": { "type": "Point", "coordinates": [ 21.83039, 48.87176 ] } },
{ "type": "Feature", "properties": { "level_0": 78, "index": 0, "checkins": 7.0, "city": "Kosice", "country": "Slovakia", "id": "2155016057925913", "is_verified": false, "latitude": 48.72741, "likes_n": 191.0, "located_in": null, "longitude": 21.2516399, "name": "Premium Apartments", "rating_count": "2.0", "street": "Strojarenska 11", "website": "https://www.premiumapartments.sk/", "zip": "04001", "district_id": 802, "region_id": 8, "municipality_id": 598186, "district_name": "Košice I", "region_name": "Košický", "municipality_name": "Košice-Staré Mesto", "src": "Facebook Places" }, "geometry": { "type": "Point", "coordinates": [ 21.2516399, 48.72741 ] } },
{ "type": "Feature", "properties": { "level_0": 280, "index": 0, "checkins": 8.0, "city": "Vinné", "country": "Slovakia", "id": "621457631222408", "is_verified": false, "latitude": 48.7965641, "likes_n": 5.0, "located_in": null, "longitude": 21.9789144, "name": "Camp Rybárik", "rating_count": "1.0", "street": null, "website": "NaN", "zip": "07231", "district_id": 807, "region_id": 8, "municipality_id": 523259, "district_name": "Michalovce", "region_name": "Košický", "municipality_name": "Vinné", "src": "Facebook Places" }, "geometry": { "type": "Point", "coordinates": [ 21.9789144, 48.7965641 ] } },
{ "type": "Feature", "properties": { "level_0": 279, "index": 0, "checkins": 13.0, "city": "Michalovce", "country": "Slovakia", "id": "1421077054886928", "is_verified": false, "latitude": 48.75, "likes_n": 3590.0, "located_in": null, "longitude": 21.9333, "name": "Chata Šírava", "rating_count": "20.0", "street": "Kaluza - Kamenec", "website": "http://city-metal.eu", "zip": "07236", "district_id": 807, "region_id": 8, "municipality_id": 522279, "district_name": "Michalovce", "region_name": "Košický", "municipality_name": "Michalovce", "src": "Facebook Places" }, "geometry": { "type": "Point", "coordinates": [ 21.9333, 48.75 ] } },
{ "type": "Feature", "properties": { "level_0": 599, "index": 0, "checkins": 2408.0, "city": "Vinicky", "country": "Slovakia", "id": "501879336551462", "is_verified": false, "latitude": 48.397677002857002, "likes_n": 2791.0, "located_in": null, "longitude": 21.729860415714999, "name": "Zlatá Putňa Restaurant & Pension", "rating_count": "210.0", "street": "Hlavná 414/73", "website": "http://www.zlataputna.sk", "zip": "076 31", "district_id": 811, "region_id": 8, "municipality_id": 543926, "district_name": "Trebišov", "region_name": "Košický", "municipality_name": "Viničky", "src": "Facebook Places" }, "geometry": { "type": "Point", "coordinates": [ 21.729860415714999, 48.397677002857002 ] } },
{ "type": "Feature", "properties": { "level_0": 330, "index": 0, "checkins": 9417.0, "city": "Michalovce", "country": "Slovakia", "id": "227683553929690", "is_verified": false, "latitude": 48.808923587597, "likes_n": 2701.0, "located_in": null, "longitude": 22.012158924316999, "name": "Motel Kamenec", "rating_count": "331.0", "street": "Kaluža 225", "website": "www.motelkamenec.sk", "zip": "07235", "district_id": 807, "region_id": 8, "municipality_id": 522589, "district_name": "Michalovce", "region_name": "Košický", "municipality_name": "Kaluža", "src": "Facebook Places" }, "geometry": { "type": "Point", "coordinates": [ 22.012158924316999, 48.808923587597 ] } },
{ "type": "Feature", "properties": { "level_0": 329, "index": 0, "checkins": 2.0, "city": "Kaluza", "country": "Slovakia", "id": "1611057025817217", "is_verified": false, "latitude": 48.810481124719999, "likes_n": 103.0, "located_in": null, "longitude": 22.00587272644, "name": "Chata Zemplín", "rating_count": "2.0", "street": "Kaluža 751", "website": "https://sirava.sk/ubytovanie/chata-zemplin/", "zip": "07236", "district_id": 807, "region_id": 8, "municipality_id": 522589, "district_name": "Michalovce", "region_name": "Košický", "municipality_name": "Kaluža", "src": "Facebook Places" }, "geometry": { "type": "Point", "coordinates": [ 22.00587272644, 48.810481124719999 ] } },
{ "type": "Feature", "properties": { "level_0": 398, "index": 0, "checkins": 161.0, "city": "Smizany", "country": "Slovakia", "id": "2031977883774152", "is_verified": false, "latitude": 48.94843, "likes_n": 2.0, "located_in": null, "longitude": 20.49032, "name": "Čingov", "rating_count": "0.0", "street": "Hradisko", "website": "http://www.parkhotelcingov.sk/", "zip": "053 11", "district_id": 810, "region_id": 8, "municipality_id": 543586, "district_name": "Spišská Nová Ves", "region_name": "Košický", "municipality_name": "Spišské Tomášovce", "src": "Facebook Places" }, "geometry": { "type": "Point", "coordinates": [ 20.49032, 48.94843 ] } },
{ "type": "Feature", "properties": { "level_0": 413, "index": 0, "checkins": 0.0, "city": "Hnilcik", "country": "Slovakia", "id": "100766154756637", "is_verified": false, "latitude": 48.86869, "likes_n": 304.0, "located_in": null, "longitude": 20.57627, "name": "Chata Bindt", "rating_count": "4.0", "street": null, "website": "NaN", "zip": null, "district_id": 810, "region_id": 8, "municipality_id": 526576, "district_name": "Spišská Nová Ves", "region_name": "Košický", "municipality_name": "Hnilčík", "src": "Facebook Places" }, "geometry": { "type": "Point", "coordinates": [ 20.57627, 48.86869 ] } },
{ "type": "Feature", "properties": { "level_0": 524, "index": 0, "checkins": 35.0, "city": "Krompachy", "country": "Slovakia", "id": "325727550804414", "is_verified": false, "latitude": 48.90518160077, "likes_n": 1.0, "located_in": null, "longitude": 20.892447583325001, "name": "Hotel Plejsy, Slowacja", "rating_count": "0.0", "street": null, "website": "NaN", "zip": "05342", "district_id": 810, "region_id": 8, "municipality_id": 543268, "district_name": "Spišská Nová Ves", "region_name": "Košický", "municipality_name": "Krompachy", "src": "Facebook Places" }, "geometry": { "type": "Point", "coordinates": [ 20.892447583325001, 48.90518160077 ] } },
{ "type": "Feature", "properties": { "level_0": 525, "index": 0, "checkins": 478.0, "city": "Slovinky", "country": "Slovakia", "id": "329416033918101", "is_verified": false, "latitude": 48.8833, "likes_n": 20.0, "located_in": null, "longitude": 20.85, "name": "Batislava", "rating_count": "1.0", "street": "slovinky", "website": "NaN", "zip": "44567", "district_id": 810, "region_id": 8, "municipality_id": 543535, "district_name": "Spišská Nová Ves", "region_name": "Košický", "municipality_name": "Slovinky", "src": "Facebook Places" }, "geometry": { "type": "Point", "coordinates": [ 20.85, 48.8833 ] } },
{ "type": "Feature", "properties": { "level_0": 527, "index": 0, "checkins": 1.0, "city": "Slovinky", "country": "Slovakia", "id": "785197861552340", "is_verified": false, "latitude": 48.8833, "likes_n": 0.0, "located_in": null, "longitude": 20.85, "name": "Marta Hotel", "rating_count": "0.0", "street": "bratislava", "website": "NaN", "zip": "22331", "district_id": 810, "region_id": 8, "municipality_id": 543535, "district_name": "Spišská Nová Ves", "region_name": "Košický", "municipality_name": "Slovinky", "src": "Facebook Places" }, "geometry": { "type": "Point", "coordinates": [ 20.85, 48.8833 ] } },
{ "type": "Feature", "properties": { "level_0": 64, "index": 0, "checkins": 2.0, "city": "Kosice", "country": "Slovakia", "id": "1139662812723959", "is_verified": false, "latitude": 48.72457, "likes_n": 153.0, "located_in": null, "longitude": 21.25932, "name": "Hostel SRZ Vodná 1 Košice", "rating_count": "4.0", "street": "Vodná 1", "website": "http://www.hostelsrz.sk/sk/", "zip": "04001", "district_id": 802, "region_id": 8, "municipality_id": 598186, "district_name": "Košice I", "region_name": "Košický", "municipality_name": "Košice-Staré Mesto", "src": "Facebook Places" }, "geometry": { "type": "Point", "coordinates": [ 21.25932, 48.72457 ] } },
{ "type": "Feature", "properties": { "level_0": 67, "index": 0, "checkins": 123.0, "city": "Kosice", "country": "Slovakia", "id": "332784067487328", "is_verified": false, "latitude": 48.731338208445997, "likes_n": 241.0, "located_in": "458476030904499", "longitude": 21.253609657287999, "name": "Hotel Crystal", "rating_count": "12.0", "street": "Slovenskej jednoty 1776/8", "website": "http://www.hotelcrystal.sk/", "zip": "040 01", "district_id": 802, "region_id": 8, "municipality_id": 598186, "district_name": "Košice I", "region_name": "Košický", "municipality_name": "Košice-Staré Mesto", "src": "Facebook Places" }, "geometry": { "type": "Point", "coordinates": [ 21.253609657287999, 48.731338208445997 ] } },
{ "type": "Feature", "properties": { "level_0": 66, "index": 0, "checkins": 8.0, "city": "Kosice", "country": "Slovakia", "id": "288595278734696", "is_verified": false, "latitude": 48.7314999, "likes_n": 0.0, "located_in": null, "longitude": 21.25462, "name": "Garni hotel Rokoko***", "rating_count": "0.0", "street": "Gorkého, 9", "website": "NaN", "zip": "040 01", "district_id": 802, "region_id": 8, "municipality_id": 598186, "district_name": "Košice I", "region_name": "Košický", "municipality_name": "Košice-Staré Mesto", "src": "Facebook Places" }, "geometry": { "type": "Point", "coordinates": [ 21.25462, 48.7314999 ] } },
{ "type": "Feature", "properties": { "level_0": 61, "index": 0, "checkins": 429.0, "city": "Kosice", "country": "Slovakia", "id": "238042522896889", "is_verified": false, "latitude": 48.72703, "likes_n": 30.0, "located_in": null, "longitude": 21.25105, "name": "Hotel Maraton Košice", "rating_count": "9.0", "street": "Strojárenská 11A", "website": "NaN", "zip": "04001", "district_id": 802, "region_id": 8, "municipality_id": 598186, "district_name": "Košice I", "region_name": "Košický", "municipality_name": "Košice-Staré Mesto", "src": "Facebook Places" }, "geometry": { "type": "Point", "coordinates": [ 21.25105, 48.72703 ] } },
{ "type": "Feature", "properties": { "level_0": 65, "index": 0, "checkins": 38.0, "city": "Kosice", "country": "Slovakia", "id": "1658044954459768", "is_verified": false, "latitude": 48.7250068, "likes_n": 49.0, "located_in": null, "longitude": 21.2580942, "name": "Penzión nad bankou", "rating_count": "3.0", "street": "Kováčska 63", "website": "http://penzionnadbankou.sk/", "zip": "04001", "district_id": 802, "region_id": 8, "municipality_id": 598186, "district_name": "Košice I", "region_name": "Košický", "municipality_name": "Košice-Staré Mesto", "src": "Facebook Places" }, "geometry": { "type": "Point", "coordinates": [ 21.2580942, 48.7250068 ] } },
{ "type": "Feature", "properties": { "level_0": 70, "index": 0, "checkins": 3.0, "city": "Kosice", "country": "Slovakia", "id": "371787846235026", "is_verified": false, "latitude": 48.729599606748003, "likes_n": 0.0, "located_in": null, "longitude": 21.257128327437002, "name": "Hotel Yasmin", "rating_count": "0.0", "street": null, "website": "NaN", "zip": null, "district_id": 802, "region_id": 8, "municipality_id": 598186, "district_name": "Košice I", "region_name": "Košický", "municipality_name": "Košice-Staré Mesto", "src": "Facebook Places" }, "geometry": { "type": "Point", "coordinates": [ 21.257128327437002, 48.729599606748003 ] } },
{ "type": "Feature", "properties": { "level_0": 154, "index": 0, "checkins": 29.0, "city": "Vysny Medzev", "country": "Slovakia", "id": "182440298756496", "is_verified": false, "latitude": 48.714917710126997, "likes_n": 44.0, "located_in": null, "longitude": 20.901897783675999, "name": "Pension & Camping SOKOL", "rating_count": "6.0", "street": "Hrdinov SNP 64 - 68", "website": "http://sokol.nl", "zip": "044 25", "district_id": 806, "region_id": 8, "municipality_id": 582093, "district_name": "Košice - okolie", "region_name": "Košický", "municipality_name": "Vyšný Medzev", "src": "Facebook Places" }, "geometry": { "type": "Point", "coordinates": [ 20.901897783675999, 48.714917710126997 ] } },
{ "type": "Feature", "properties": { "level_0": 174, "index": 0, "checkins": 1163.0, "city": "Zlatá Idka", "country": "Slovakia", "id": "270957913052666", "is_verified": false, "latitude": 48.747628558000002, "likes_n": 888.0, "located_in": null, "longitude": 21.027934545000001, "name": "Rekreačné zariadenie Zlatá Idka Wellness Svadby Firemné akcie", "rating_count": "27.0", "street": "Zlatá Idka", "website": "http://www.rzzlataidka.sk", "zip": "044 61", "district_id": 806, "region_id": 8, "municipality_id": 522244, "district_name": "Košice - okolie", "region_name": "Košický", "municipality_name": "Zlatá Idka", "src": "Facebook Places" }, "geometry": { "type": "Point", "coordinates": [ 21.027934545, 48.747628558 ] } },
{ "type": "Feature", "properties": { "level_0": 332, "index": 0, "checkins": 1035.0, "city": "Kaluza", "country": "Slovakia", "id": "166603090077377", "is_verified": false, "latitude": 48.807501780156997, "likes_n": 130.0, "located_in": null, "longitude": 22.012424231514998, "name": "Hotel Glamour", "rating_count": "49.0", "street": "Kaluža 744", "website": "NaN", "zip": "07236", "district_id": 807, "region_id": 8, "municipality_id": 522589, "district_name": "Michalovce", "region_name": "Košický", "municipality_name": "Kaluža", "src": "Facebook Places" }, "geometry": { "type": "Point", "coordinates": [ 22.012424231514998, 48.807501780156997 ] } },
{ "type": "Feature", "properties": { "level_0": 335, "index": 0, "checkins": 82.0, "city": "Michalovce", "country": "Slovakia", "id": "849767775052659", "is_verified": false, "latitude": 48.811738100061, "likes_n": 198.0, "located_in": null, "longitude": 22.017773074861001, "name": "Stella Šírava", "rating_count": "8.0", "street": "Kamenec, Zemplínska Šírava", "website": "http://www.stellasirava.sk", "zip": "072 36 Klokočov", "district_id": 807, "region_id": 8, "municipality_id": 522597, "district_name": "Michalovce", "region_name": "Košický", "municipality_name": "Klokočov", "src": "Facebook Places" }, "geometry": { "type": "Point", "coordinates": [ 22.017773074861001, 48.811738100061 ] } },
{ "type": "Feature", "properties": { "level_0": 291, "index": 0, "checkins": 7.0, "city": "Dedinky", "country": "Slovakia", "id": "569390413102354", "is_verified": false, "latitude": 48.86095, "likes_n": 6.0, "located_in": null, "longitude": 20.374288, "name": "Chata Slanka", "rating_count": "1.0", "street": null, "website": "NaN", "zip": null, "district_id": 808, "region_id": 8, "municipality_id": 525618, "district_name": "Rožňava", "region_name": "Košický", "municipality_name": "Dedinky", "src": "Facebook Places" }, "geometry": { "type": "Point", "coordinates": [ 20.374288, 48.86095 ] } },
{ "type": "Feature", "properties": { "level_0": 210, "index": 0, "checkins": 1902.0, "city": "Kosice", "country": "Slovakia", "id": "182893471844357", "is_verified": false, "latitude": 48.65511667, "likes_n": 1829.0, "located_in": null, "longitude": 21.27012186, "name": "Hotel Bonaparte", "rating_count": "107.0", "street": "Šebastovská 4", "website": "http://www.hotelbonaparte.sk", "zip": "040 17", "district_id": 805, "region_id": 8, "municipality_id": 599786, "district_name": "Košice IV", "region_name": "Košický", "municipality_name": "Košice-Šebastovce", "src": "Facebook Places" }, "geometry": { "type": "Point", "coordinates": [ 21.27012186, 48.65511667 ] } },
{ "type": "Feature", "properties": { "level_0": 336, "index": 0, "checkins": 1556.0, "city": "Kaluza", "country": "Slovakia", "id": "486442008107470", "is_verified": false, "latitude": 48.801806894884002, "likes_n": 2010.0, "located_in": null, "longitude": 22.001834748084999, "name": "Hotel Merkúr", "rating_count": "43.0", "street": "Zemplínska Šírava 264, Medvedia Hora", "website": "http://www.hotelmerkur.sk", "zip": "072 36", "district_id": 807, "region_id": 8, "municipality_id": 522589, "district_name": "Michalovce", "region_name": "Košický", "municipality_name": "Kaluža", "src": "Facebook Places" }, "geometry": { "type": "Point", "coordinates": [ 22.001834748084999, 48.801806894884002 ] } },
{ "type": "Feature", "properties": { "level_0": 337, "index": 0, "checkins": 553.0, "city": "Michalovce", "country": "Slovakia", "id": "429067620476919", "is_verified": false, "latitude": 48.807481597955999, "likes_n": 43.0, "located_in": null, "longitude": 22.008503191948002, "name": "Širava Kamenec", "rating_count": "1.0", "street": null, "website": "NaN", "zip": null, "district_id": 807, "region_id": 8, "municipality_id": 522589, "district_name": "Michalovce", "region_name": "Košický", "municipality_name": "Kaluža", "src": "Facebook Places" }, "geometry": { "type": "Point", "coordinates": [ 22.008503191948002, 48.807481597955999 ] } },
{ "type": "Feature", "properties": { "level_0": 254, "index": 0, "checkins": 2038.0, "city": "Michalovce", "country": "Slovakia", "id": "806086279402488", "is_verified": false, "latitude": 48.76055, "likes_n": 2412.0, "located_in": null, "longitude": 21.90458, "name": "Hotel Mousson", "rating_count": "77.0", "street": "T.J.Moussona 1", "website": "http://www.hotelmousson.sk", "zip": "07101", "district_id": 807, "region_id": 8, "municipality_id": 522279, "district_name": "Michalovce", "region_name": "Košický", "municipality_name": "Michalovce", "src": "Facebook Places" }, "geometry": { "type": "Point", "coordinates": [ 21.90458, 48.76055 ] } },
{ "type": "Feature", "properties": { "level_0": 256, "index": 0, "checkins": 202.0, "city": "Michalovce", "country": "Slovakia", "id": "236261176406185", "is_verified": false, "latitude": 48.760593606941001, "likes_n": 51.0, "located_in": null, "longitude": 21.904672228978001, "name": "Hotel Mousson Michalovce", "rating_count": "20.0", "street": null, "website": "NaN", "zip": "07101", "district_id": 807, "region_id": 8, "municipality_id": 522279, "district_name": "Michalovce", "region_name": "Košický", "municipality_name": "Michalovce", "src": "Facebook Places" }, "geometry": { "type": "Point", "coordinates": [ 21.904672228978001, 48.760593606941001 ] } },
{ "type": "Feature", "properties": { "level_0": 258, "index": 0, "checkins": 1.0, "city": "Michalovce", "country": "Slovakia", "id": "1711530028992528", "is_verified": false, "latitude": 48.755481137449003, "likes_n": 4.0, "located_in": null, "longitude": 21.914994436345001, "name": "Hotel Jalta Michalovce", "rating_count": "0.0", "street": null, "website": "http://www.jalta.sk/", "zip": "071 01", "district_id": 807, "region_id": 8, "municipality_id": 522279, "district_name": "Michalovce", "region_name": "Košický", "municipality_name": "Michalovce", "src": "Facebook Places" }, "geometry": { "type": "Point", "coordinates": [ 21.914994436345001, 48.755481137449003 ] } },
{ "type": "Feature", "properties": { "level_0": 261, "index": 0, "checkins": 7.0, "city": "Michalovce", "country": "Slovakia", "id": "708044735959420", "is_verified": false, "latitude": 48.747880855131001, "likes_n": 19.0, "located_in": null, "longitude": 21.903762998468, "name": "ALF CLUB Penzion", "rating_count": "0.0", "street": "STEFANIKOVA 1385/67", "website": "NaN", "zip": "07101", "district_id": 807, "region_id": 8, "municipality_id": 522279, "district_name": "Michalovce", "region_name": "Košický", "municipality_name": "Michalovce", "src": "Facebook Places" }, "geometry": { "type": "Point", "coordinates": [ 21.903762998468, 48.747880855131001 ] } },
{ "type": "Feature", "properties": { "level_0": 266, "index": 0, "checkins": 33.0, "city": "Vinné", "country": "Slovakia", "id": "1427138764216830", "is_verified": false, "latitude": 48.79748495914, "likes_n": 339.0, "located_in": null, "longitude": 21.981364816814001, "name": "Hotel SPP RELAX", "rating_count": "8.0", "street": "Zemplínska Šírava R.O. Hôrka -  Lúč", "website": "http://www.spprelax.sk", "zip": "072 31", "district_id": 807, "region_id": 8, "municipality_id": 523259, "district_name": "Michalovce", "region_name": "Košický", "municipality_name": "Vinné", "src": "Facebook Places" }, "geometry": { "type": "Point", "coordinates": [ 21.981364816814001, 48.79748495914 ] } },
{ "type": "Feature", "properties": { "level_0": 292, "index": 0, "checkins": 4541.0, "city": "Vinné", "country": "Slovakia", "id": "1420608198200039", "is_verified": false, "latitude": 48.818722177319003, "likes_n": 6355.0, "located_in": null, "longitude": 21.984758694130001, "name": "Hotel Vinnay", "rating_count": "251.0", "street": "Vinianske jazero", "website": "http://www.hotelvinnay.sk", "zip": "07231", "district_id": 807, "region_id": 8, "municipality_id": 523259, "district_name": "Michalovce", "region_name": "Košický", "municipality_name": "Vinné", "src": "Facebook Places" }, "geometry": { "type": "Point", "coordinates": [ 21.984758694130001, 48.818722177319003 ] } },
{ "type": "Feature", "properties": { "level_0": 293, "index": 0, "checkins": 470.0, "city": "Vinné", "country": "Slovakia", "id": "875813519158368", "is_verified": false, "latitude": 48.816302754105998, "likes_n": 805.0, "located_in": null, "longitude": 21.984758377075, "name": "Hotel Jazero", "rating_count": "16.0", "street": null, "website": "http://www.hoteljazero.sk", "zip": "07231", "district_id": 807, "region_id": 8, "municipality_id": 523259, "district_name": "Michalovce", "region_name": "Košický", "municipality_name": "Vinné", "src": "Facebook Places" }, "geometry": { "type": "Point", "coordinates": [ 21.984758377075, 48.816302754105998 ] } },
{ "type": "Feature", "properties": { "level_0": 339, "index": 0, "checkins": 120.0, "city": "Kaluza", "country": "Slovakia", "id": "189540331108281", "is_verified": false, "latitude": 48.810113878029, "likes_n": 13.0, "located_in": null, "longitude": 22.005445603997, "name": "Hotel Felicia", "rating_count": "1.0", "street": null, "website": "NaN", "zip": null, "district_id": 807, "region_id": 8, "municipality_id": 522589, "district_name": "Michalovce", "region_name": "Košický", "municipality_name": "Kaluža", "src": "Facebook Places" }, "geometry": { "type": "Point", "coordinates": [ 22.005445603997, 48.810113878029 ] } },
{ "type": "Feature", "properties": { "level_0": 163, "index": 0, "checkins": 0.0, "city": "Moldava nad Bodvou", "country": "Slovakia", "id": "2055349328106998", "is_verified": false, "latitude": 48.611763096674999, "likes_n": 0.0, "located_in": null, "longitude": 20.999416452864999, "name": "Penzion Ferdinand", "rating_count": "0.0", "street": "20 Okružná", "website": "http://www.ferdinand.sk", "zip": "045 01", "district_id": 806, "region_id": 8, "municipality_id": 521698, "district_name": "Košice - okolie", "region_name": "Košický", "municipality_name": "Moldava nad Bodvou", "src": "Facebook Places" }, "geometry": { "type": "Point", "coordinates": [ 20.999416452864999, 48.611763096674999 ] } },
{ "type": "Feature", "properties": { "level_0": 4, "index": 0, "checkins": 12.0, "city": "Smolník", "country": "Slovakia", "id": "1576038102470887", "is_verified": false, "latitude": 48.72813, "likes_n": 1040.0, "located_in": null, "longitude": 20.73733, "name": "Pod Czerwonymi Grabiami", "rating_count": "14.0", "street": null, "website": "NaN", "zip": null, "district_id": 801, "region_id": 8, "municipality_id": 543560, "district_name": "Gelnica", "region_name": "Košický", "municipality_name": "Smolník", "src": "Facebook Places" }, "geometry": { "type": "Point", "coordinates": [ 20.73733, 48.72813 ] } },
{ "type": "Feature", "properties": { "level_0": 436, "index": 0, "checkins": 2.0, "city": "Spisska Nova Ves", "country": "Slovakia", "id": "592390527452527", "is_verified": false, "latitude": 48.9441657, "likes_n": 0.0, "located_in": null, "longitude": 20.5633057, "name": "Apartmány Rudolf", "rating_count": "0.0", "street": "Zimná", "website": "NaN", "zip": null, "district_id": 810, "region_id": 8, "municipality_id": 526355, "district_name": "Spišská Nová Ves", "region_name": "Košický", "municipality_name": "Spišská Nová Ves", "src": "Facebook Places" }, "geometry": { "type": "Point", "coordinates": [ 20.5633057, 48.9441657 ] } },
{ "type": "Feature", "properties": { "level_0": 341, "index": 0, "checkins": 89.0, "city": "Michalovce", "country": "Slovakia", "id": "232545667523311", "is_verified": false, "latitude": 48.79862, "likes_n": 307.0, "located_in": null, "longitude": 22.00458, "name": "Hotel Granit Zemplínská šírava", "rating_count": "2.0", "street": "Kaluža 072 36,", "website": "http://horezza.sk/hotel-granit-zemplinska-sirava/", "zip": "07236", "district_id": 807, "region_id": 8, "municipality_id": 522589, "district_name": "Michalovce", "region_name": "Košický", "municipality_name": "Kaluža", "src": "Facebook Places" }, "geometry": { "type": "Point", "coordinates": [ 22.00458, 48.79862 ] } },
{ "type": "Feature", "properties": { "level_0": 342, "index": 0, "checkins": 9.0, "city": "Kaluza", "country": "Slovakia", "id": "336031230419982", "is_verified": false, "latitude": 48.81078, "likes_n": 1.0, "located_in": null, "longitude": 22.01249, "name": "Hotel Thermal Sirava-R", "rating_count": "0.0", "street": "Klokočov", "website": "NaN", "zip": "072 36", "district_id": 807, "region_id": 8, "municipality_id": 522589, "district_name": "Michalovce", "region_name": "Košický", "municipality_name": "Kaluža", "src": "Facebook Places" }, "geometry": { "type": "Point", "coordinates": [ 22.01249, 48.81078 ] } },
{ "type": "Feature", "properties": { "level_0": 590, "index": 0, "checkins": 1.0, "city": "Trebisov", "country": "Slovakia", "id": "1062006247319632", "is_verified": false, "latitude": 48.6250159, "likes_n": 0.0, "located_in": null, "longitude": 21.7193118, "name": "Mesto Trebisov", "rating_count": "0.0", "street": null, "website": "NaN", "zip": "075 01", "district_id": 811, "region_id": 8, "municipality_id": 528099, "district_name": "Trebišov", "region_name": "Košický", "municipality_name": "Trebišov", "src": "Facebook Places" }, "geometry": { "type": "Point", "coordinates": [ 21.7193118, 48.6250159 ] } },
{ "type": "Feature", "properties": { "level_0": 343, "index": 0, "checkins": 1.0, "city": "Kaluza", "country": "Slovakia", "id": "2022054301421859", "is_verified": false, "latitude": 48.8117911, "likes_n": 0.0, "located_in": null, "longitude": 22.0119065, "name": "Penzión Zelený dom", "rating_count": "0.0", "street": "Klokočov", "website": "NaN", "zip": "072 36", "district_id": 807, "region_id": 8, "municipality_id": 522589, "district_name": "Michalovce", "region_name": "Košický", "municipality_name": "Kaluža", "src": "Facebook Places" }, "geometry": { "type": "Point", "coordinates": [ 22.0119065, 48.8117911 ] } },
{ "type": "Feature", "properties": { "level_0": 345, "index": 0, "checkins": 12.0, "city": "Kaluza", "country": "Slovakia", "id": "2155321847882663", "is_verified": false, "latitude": 48.80938, "likes_n": 8.0, "located_in": null, "longitude": 22.00823, "name": "Penzión Hedera", "rating_count": "0.0", "street": "Klokočov", "website": "NaN", "zip": "072 36", "district_id": 807, "region_id": 8, "municipality_id": 522589, "district_name": "Michalovce", "region_name": "Košický", "municipality_name": "Kaluža", "src": "Facebook Places" }, "geometry": { "type": "Point", "coordinates": [ 22.00823, 48.80938 ] } },
{ "type": "Feature", "properties": { "level_0": 492, "index": 0, "checkins": 2567.0, "city": "Porac", "country": "Slovakia", "id": "707780385911321", "is_verified": false, "latitude": 48.879574017160003, "likes_n": 4734.0, "located_in": null, "longitude": 20.74230867484, "name": "Porač Park - Horský Hotel", "rating_count": "91.0", "street": "Poračska Dolina", "website": "http://www.poracpark.sk/", "zip": "053 23", "district_id": 810, "region_id": 8, "municipality_id": 543489, "district_name": "Spišská Nová Ves", "region_name": "Košický", "municipality_name": "Poráč", "src": "Facebook Places" }, "geometry": { "type": "Point", "coordinates": [ 20.74230867484, 48.879574017160003 ] } },
{ "type": "Feature", "properties": { "level_0": 97, "index": 0, "checkins": 2.0, "city": "Stratená", "country": "Slovakia", "id": "359044224715103", "is_verified": false, "latitude": 48.86844, "likes_n": 2.0, "located_in": null, "longitude": 20.34566, "name": "Penzion Safran", "rating_count": "0.0", "street": "67", "website": "NaN", "zip": "049 71", "district_id": 808, "region_id": 8, "municipality_id": 525634, "district_name": "Rožňava", "region_name": "Košický", "municipality_name": "Dobšiná", "src": "Facebook Places" }, "geometry": { "type": "Point", "coordinates": [ 20.34566, 48.86844 ] } },
{ "type": "Feature", "properties": { "level_0": 493, "index": 0, "checkins": 25.0, "city": "Porac", "country": "Slovakia", "id": "228173897634986", "is_verified": false, "latitude": 48.87853, "likes_n": 71.0, "located_in": null, "longitude": 20.73348, "name": "Four Seasons Cottage", "rating_count": "0.0", "street": null, "website": "http://www.megaubytovanie.sk/four-seasons-cottage?gclid=CjwKEAiAkajDBRCRq8Czmdj-yFgSJADikZggQ-ji-AgRF_46AXjr9K-IGsbZlLXLxBWuyBp4umStRRoC2Efw_wcB", "zip": null, "district_id": 810, "region_id": 8, "municipality_id": 543489, "district_name": "Spišská Nová Ves", "region_name": "Košický", "municipality_name": "Poráč", "src": "Facebook Places" }, "geometry": { "type": "Point", "coordinates": [ 20.73348, 48.87853 ] } },
{ "type": "Feature", "properties": { "level_0": 498, "index": 0, "checkins": 31.0, "city": "Zehra", "country": "Slovakia", "id": "1506766626210446", "is_verified": false, "latitude": 48.99267, "likes_n": 39.0, "located_in": null, "longitude": 20.78017, "name": "Penzion Dreveník", "rating_count": "3.0", "street": "Žehra - Hodkovce 21", "website": "NaN", "zip": "053 61", "district_id": 810, "region_id": 8, "municipality_id": 526657, "district_name": "Spišská Nová Ves", "region_name": "Košický", "municipality_name": "Žehra", "src": "Facebook Places" }, "geometry": { "type": "Point", "coordinates": [ 20.78017, 48.99267 ] } },
{ "type": "Feature", "properties": { "level_0": 346, "index": 0, "checkins": 4.0, "city": "Kaluza", "country": "Slovakia", "id": "644506342655889", "is_verified": false, "latitude": 48.802567146519003, "likes_n": 2084.0, "located_in": null, "longitude": 22.003555297851999, "name": "Thermal Šírava Spa", "rating_count": "NaN", "street": "Kaluža 780", "website": "https://www.thermalsirava.sk/index.php", "zip": "072 36", "district_id": 807, "region_id": 8, "municipality_id": 522589, "district_name": "Michalovce", "region_name": "Košický", "municipality_name": "Kaluža", "src": "Facebook Places" }, "geometry": { "type": "Point", "coordinates": [ 22.003555297851999, 48.802567146519003 ] } },
{ "type": "Feature", "properties": { "level_0": 347, "index": 0, "checkins": 5.0, "city": "Kaluza", "country": "Slovakia", "id": "337570849651285", "is_verified": false, "latitude": 48.7959028, "likes_n": 1.0, "located_in": null, "longitude": 22.0056042, "name": "Eurobus", "rating_count": "0.0", "street": null, "website": "NaN", "zip": null, "district_id": 807, "region_id": 8, "municipality_id": 522589, "district_name": "Michalovce", "region_name": "Košický", "municipality_name": "Kaluža", "src": "Facebook Places" }, "geometry": { "type": "Point", "coordinates": [ 22.0056042, 48.7959028 ] } },
{ "type": "Feature", "properties": { "level_0": 111, "index": 0, "checkins": 634.0, "city": "Kosice", "country": "Slovakia", "id": "342600132508639", "is_verified": false, "latitude": 48.707302292512999, "likes_n": 1363.0, "located_in": null, "longitude": 21.242213809037001, "name": "Penzión SET & Adventure minigolf", "rating_count": "48.0", "street": "Trieda SNP 85", "website": "www.penzionset.sk", "zip": "04011", "district_id": 803, "region_id": 8, "municipality_id": 598224, "district_name": "Košice II", "region_name": "Košický", "municipality_name": "Košice-Západ", "src": "Facebook Places" }, "geometry": { "type": "Point", "coordinates": [ 21.242213809037001, 48.707302292512999 ] } },
{ "type": "Feature", "properties": { "level_0": 110, "index": 0, "checkins": 1.0, "city": "Dlhá Ves", "country": "Slovakia", "id": "447945125784736", "is_verified": false, "latitude": 48.49648, "likes_n": 352.0, "located_in": null, "longitude": 20.43683, "name": "Blue B&B Dlhá Ves", "rating_count": "0.0", "street": "Hlavná 11", "website": "https://www.booking.com/hotel/sk/blue-b-amp-b-dlha-ves.sk.html?label=gen173nr-1DCAsozQFCFWJsdWUtYi1hbXAtYi1kbGhhLXZlc0giWARozQGIAQGYASK4ARjIAQzYAQPoAQH4AQOIAgGoAgS4Auf7mu0FwAIB;sid=5444dcc776ec3649fe0f4ac0db9aaca3;dist=0&keep_landing=1&sb_price_type=total&type=total&", "zip": "04955", "district_id": 808, "region_id": 8, "municipality_id": 525626, "district_name": "Rožňava", "region_name": "Košický", "municipality_name": "Dlhá Ves", "src": "Facebook Places" }, "geometry": { "type": "Point", "coordinates": [ 20.43683, 48.49648 ] } },
{ "type": "Feature", "properties": { "level_0": 117, "index": 0, "checkins": 232.0, "city": "Kosice", "country": "Slovakia", "id": "198795530161711", "is_verified": false, "latitude": 48.72195, "likes_n": 381.0, "located_in": null, "longitude": 21.25375, "name": "Penzión Hradbová", "rating_count": "25.0", "street": "Hradbova 9", "website": "www.penzionhradbova.sk", "zip": "04001", "district_id": 802, "region_id": 8, "municipality_id": 598186, "district_name": "Košice I", "region_name": "Košický", "municipality_name": "Košice-Staré Mesto", "src": "Facebook Places" }, "geometry": { "type": "Point", "coordinates": [ 21.25375, 48.72195 ] } },
{ "type": "Feature", "properties": { "level_0": 74, "index": 0, "checkins": 111.0, "city": "Kosice", "country": "Slovakia", "id": "115979089801090", "is_verified": false, "latitude": 48.72881, "likes_n": 373.0, "located_in": null, "longitude": 21.25272, "name": "Hotel Michael’s Palace", "rating_count": "1.0", "street": "Komenského 9", "website": "michaelspalace.sk", "zip": null, "district_id": 802, "region_id": 8, "municipality_id": 598186, "district_name": "Košice I", "region_name": "Košický", "municipality_name": "Košice-Staré Mesto", "src": "Facebook Places" }, "geometry": { "type": "Point", "coordinates": [ 21.25272, 48.72881 ] } },
{ "type": "Feature", "properties": { "level_0": 19, "index": 0, "checkins": 0.0, "city": "Gelnica", "country": "Slovakia", "id": "106591690681647", "is_verified": false, "latitude": 48.8501, "likes_n": 23.0, "located_in": null, "longitude": 20.93314, "name": "Penzión pod hradom Gelnica", "rating_count": "0.0", "street": "Banícke Námestie 43", "website": "http://penzionpodhradomgelnica.sk/", "zip": "056 01", "district_id": 801, "region_id": 8, "municipality_id": 526509, "district_name": "Gelnica", "region_name": "Košický", "municipality_name": "Gelnica", "src": "Facebook Places" }, "geometry": { "type": "Point", "coordinates": [ 20.93314, 48.8501 ] } },
{ "type": "Feature", "properties": { "level_0": 349, "index": 0, "checkins": 548.0, "city": "Velke Kapusany", "country": "Slovakia", "id": "155021785145600", "is_verified": false, "latitude": 48.55079, "likes_n": 512.0, "located_in": null, "longitude": 22.08361, "name": "HOTEL Družba & Talpalo 2017", "rating_count": "8.0", "street": "Hlavná 1", "website": "http://www.hoteldruzba.eu", "zip": "07901", "district_id": 807, "region_id": 8, "municipality_id": 543853, "district_name": "Michalovce", "region_name": "Košický", "municipality_name": "Veľké Kapušany", "src": "Facebook Places" }, "geometry": { "type": "Point", "coordinates": [ 22.08361, 48.55079 ] } },
{ "type": "Feature", "properties": { "level_0": 194, "index": 0, "checkins": 8.0, "city": "Cestice", "country": "Slovakia", "id": "862860320557085", "is_verified": false, "latitude": 48.609392900000998, "likes_n": 0.0, "located_in": null, "longitude": 21.115190099968999, "name": "Penzion Tri Dubky", "rating_count": "0.0", "street": null, "website": "NaN", "zip": null, "district_id": 806, "region_id": 8, "municipality_id": 522147, "district_name": "Košice - okolie", "region_name": "Košický", "municipality_name": "Veľká Ida", "src": "Facebook Places" }, "geometry": { "type": "Point", "coordinates": [ 21.115190099968999, 48.609392900000998 ] } },
{ "type": "Feature", "properties": { "level_0": 198, "index": 0, "checkins": 88.0, "city": "Nizny Klatov", "country": "Slovakia", "id": "292665471211465", "is_verified": false, "latitude": 48.734874116964001, "likes_n": 12.0, "located_in": null, "longitude": 21.157971948505001, "name": "Chata Klatovianka", "rating_count": "0.0", "street": null, "website": "NaN", "zip": null, "district_id": 806, "region_id": 8, "municipality_id": 521752, "district_name": "Košice - okolie", "region_name": "Košický", "municipality_name": "Nižný Klátov", "src": "Facebook Places" }, "geometry": { "type": "Point", "coordinates": [ 21.157971948505001, 48.734874116964001 ] } },
{ "type": "Feature", "properties": { "level_0": 204, "index": 0, "checkins": 35.0, "city": "Malá Lodina", "country": "Slovakia", "id": "596752207388376", "is_verified": false, "latitude": 48.871736440001001, "likes_n": 5.0, "located_in": null, "longitude": 21.137892490005001, "name": "Rezidencia Bokšov", "rating_count": "0.0", "street": null, "website": "NaN", "zip": null, "district_id": 806, "region_id": 8, "municipality_id": 521663, "district_name": "Košice - okolie", "region_name": "Košický", "municipality_name": "Malá Lodina", "src": "Facebook Places" }, "geometry": { "type": "Point", "coordinates": [ 21.137892490005001, 48.871736440001001 ] } },
{ "type": "Feature", "properties": { "level_0": 209, "index": 0, "checkins": 13.0, "city": "Sena", "country": "Slovakia", "id": "822822361210787", "is_verified": false, "latitude": 48.56444, "likes_n": 23.0, "located_in": null, "longitude": 21.2551, "name": "Ubytovanie GREEN CUBE", "rating_count": "1.0", "street": "Seňa 77", "website": "http://www.ubytovanie-kechnec.sk/", "zip": "04458", "district_id": 806, "region_id": 8, "municipality_id": 521973, "district_name": "Košice - okolie", "region_name": "Košický", "municipality_name": "Seňa", "src": "Facebook Places" }, "geometry": { "type": "Point", "coordinates": [ 21.2551, 48.56444 ] } },
{ "type": "Feature", "properties": { "level_0": 230, "index": 0, "checkins": 10.0, "city": "Svinica", "country": "Slovakia", "id": "413214625377470", "is_verified": false, "latitude": 48.732761470111001, "likes_n": 3.0, "located_in": null, "longitude": 21.453643544952001, "name": "Svinica - Vinicny Vrch", "rating_count": "3.0", "street": null, "website": "NaN", "zip": "04445", "district_id": 806, "region_id": 8, "municipality_id": 522040, "district_name": "Košice - okolie", "region_name": "Košický", "municipality_name": "Svinica", "src": "Facebook Places" }, "geometry": { "type": "Point", "coordinates": [ 21.453643544952001, 48.732761470111001 ] } },
{ "type": "Feature", "properties": { "level_0": 216, "index": 0, "checkins": 7.0, "city": "Budimír", "country": "Slovakia", "id": "308909736305635", "is_verified": false, "latitude": 48.80417, "likes_n": 24.0, "located_in": null, "longitude": 21.30165, "name": "Ubytovanie Budimír \"Pri Ceste\"", "rating_count": "0.0", "street": "Budimír 302", "website": "http://www.ubytovaniebudimir.sk", "zip": "04443", "district_id": 806, "region_id": 8, "municipality_id": 521221, "district_name": "Košice - okolie", "region_name": "Košický", "municipality_name": "Budimír", "src": "Facebook Places" }, "geometry": { "type": "Point", "coordinates": [ 21.30165, 48.80417 ] } },
{ "type": "Feature", "properties": { "level_0": 217, "index": 0, "checkins": 22.0, "city": "Budimír", "country": "Slovakia", "id": "1572361756407417", "is_verified": false, "latitude": 48.80461, "likes_n": 708.0, "located_in": null, "longitude": 21.30156, "name": "Mini Motel", "rating_count": "12.0", "street": "Budimír 312", "website": "http://www.booking.com/hotel/sk/mini-motel.sk.html?label=gen173nr-1FCAEoggJCAlhYSDNiBW5vcmVmaM0BiAEBmAEiwgEDYWJuyAEM2AEB6AEB-AELqAIE;sid=4696637059613c0c89", "zip": "044 43", "district_id": 806, "region_id": 8, "municipality_id": 521221, "district_name": "Košice - okolie", "region_name": "Košický", "municipality_name": "Budimír", "src": "Facebook Places" }, "geometry": { "type": "Point", "coordinates": [ 21.30156, 48.80461 ] } },
{ "type": "Feature", "properties": { "level_0": 218, "index": 0, "checkins": 24.0, "city": "Budimír", "country": "Slovakia", "id": "1048248938532436", "is_verified": false, "latitude": 48.797504, "likes_n": 68.0, "located_in": null, "longitude": 21.305483, "name": "Penzión Marika", "rating_count": "3.0", "street": "Budimír 20", "website": "http://www.penzionmarika.sk/", "zip": "044 43", "district_id": 806, "region_id": 8, "municipality_id": 521221, "district_name": "Košice - okolie", "region_name": "Košický", "municipality_name": "Budimír", "src": "Facebook Places" }, "geometry": { "type": "Point", "coordinates": [ 21.305483, 48.797504 ] } },
{ "type": "Feature", "properties": { "level_0": 494, "index": 0, "checkins": 17.0, "city": "Spisska Nova Ves", "country": "Slovakia", "id": "393640674024568", "is_verified": false, "latitude": 48.88364, "likes_n": 123.0, "located_in": null, "longitude": 20.72187, "name": "Chalupa Helena", "rating_count": "3.0", "street": null, "website": "http://www.chalupahelena.sk/", "zip": null, "district_id": 810, "region_id": 8, "municipality_id": 543489, "district_name": "Spišská Nová Ves", "region_name": "Košický", "municipality_name": "Poráč", "src": "Facebook Places" }, "geometry": { "type": "Point", "coordinates": [ 20.72187, 48.88364 ] } },
{ "type": "Feature", "properties": { "level_0": 255, "index": 0, "checkins": 1168.0, "city": "Michalovce", "country": "Slovakia", "id": "401889003162741", "is_verified": false, "latitude": 48.76055, "likes_n": 146.0, "located_in": null, "longitude": 21.90458, "name": "Hotel Mousson, Michalovce Slovakia", "rating_count": "46.0", "street": "Ul. T.J.Moussona 1", "website": "http://www.hotelmousson.sk/", "zip": "07101", "district_id": 807, "region_id": 8, "municipality_id": 522279, "district_name": "Michalovce", "region_name": "Košický", "municipality_name": "Michalovce", "src": "Facebook Places" }, "geometry": { "type": "Point", "coordinates": [ 21.90458, 48.76055 ] } },
{ "type": "Feature", "properties": { "level_0": 251, "index": 0, "checkins": 1.0, "city": "Michalovce", "country": "Slovakia", "id": "656967337690152", "is_verified": false, "latitude": 48.756, "likes_n": 66.0, "located_in": null, "longitude": 21.91486, "name": "Chata Pod Javorom", "rating_count": "1.0", "street": "Zemplínska Šírava-Kamenec", "website": "www.sirava-podjavor.szm.com", "zip": "07101", "district_id": 807, "region_id": 8, "municipality_id": 522279, "district_name": "Michalovce", "region_name": "Košický", "municipality_name": "Michalovce", "src": "Facebook Places" }, "geometry": { "type": "Point", "coordinates": [ 21.91486, 48.756 ] } },
{ "type": "Feature", "properties": { "level_0": 324, "index": 0, "checkins": 0.0, "city": "Hrabusice", "country": "Slovakia", "id": "180182562562753", "is_verified": false, "latitude": 48.97973, "likes_n": 12.0, "located_in": null, "longitude": 20.40557, "name": "Zelená chalúpka", "rating_count": "0.0", "street": "Slovenského raja 275", "website": "www.zelenachalupka.sk", "zip": "052 01", "district_id": 810, "region_id": 8, "municipality_id": 526592, "district_name": "Spišská Nová Ves", "region_name": "Košický", "municipality_name": "Hrabušice", "src": "Facebook Places" }, "geometry": { "type": "Point", "coordinates": [ 20.40557, 48.97973 ] } },
{ "type": "Feature", "properties": { "level_0": 338, "index": 0, "checkins": 675.0, "city": "Kaluza", "country": "Slovakia", "id": "751082288265451", "is_verified": false, "latitude": 48.81018965002, "likes_n": 789.0, "located_in": null, "longitude": 22.005331850057001, "name": "Felícia hotel", "rating_count": "9.0", "street": "Kamenec - Zemplínska Šírava", "website": "www.hotelfelicia.sk\nrecepcia@hotelfelicia.sk\nskype: hotelfelicia", "zip": "07236", "district_id": 807, "region_id": 8, "municipality_id": 522589, "district_name": "Michalovce", "region_name": "Košický", "municipality_name": "Kaluža", "src": "Facebook Places" }, "geometry": { "type": "Point", "coordinates": [ 22.005331850057001, 48.81018965002 ] } },
{ "type": "Feature", "properties": { "level_0": 122, "index": 0, "checkins": 1110.0, "city": "Kosice", "country": "Slovakia", "id": "272299839465084", "is_verified": false, "latitude": 48.727042524744, "likes_n": 862.0, "located_in": null, "longitude": 21.251167240645, "name": "Boutique Hotel Maraton", "rating_count": "63.0", "street": "Strojárenská 11/A", "website": "www.hotelmaraton.sk, www.restauranciamaraton.sk", "zip": "04001", "district_id": 802, "region_id": 8, "municipality_id": 598186, "district_name": "Košice I", "region_name": "Košický", "municipality_name": "Košice-Staré Mesto", "src": "Facebook Places" }, "geometry": { "type": "Point", "coordinates": [ 21.251167240645, 48.727042524744 ] } },
{ "type": "Feature", "properties": { "level_0": 374, "index": 0, "checkins": 46.0, "city": "Spisska Nova Ves", "country": "Slovakia", "id": "686480118403946", "is_verified": false, "latitude": 48.938827468541, "likes_n": 0.0, "located_in": null, "longitude": 20.565291888185001, "name": "Hotel Preveza", "rating_count": "0.0", "street": "Za HornÃ¡dom 12 05201 SpiÅ¡skÃ¡ NovÃ¡ Ves", "website": "NaN", "zip": null, "district_id": 810, "region_id": 8, "municipality_id": 526355, "district_name": "Spišská Nová Ves", "region_name": "Košický", "municipality_name": "Spišská Nová Ves", "src": "Facebook Places" }, "geometry": { "type": "Point", "coordinates": [ 20.565291888185001, 48.938827468541 ] } },
{ "type": "Feature", "properties": { "level_0": 380, "index": 0, "checkins": 1.0, "city": "Spisske Tomasovce", "country": "Slovakia", "id": "361260110958411", "is_verified": false, "latitude": 48.966793993308997, "likes_n": 88.0, "located_in": null, "longitude": 20.474760532379001, "name": "Privat Zuzana", "rating_count": "1.0", "street": "Juraja Sklenára 94/23", "website": "https://www.booking.com/hotel/sk/privat-zuzana.cs.html?label=gen173nr-1FCAEoggI46AdIM1gEaA6IAQGYAQW4AQbIAQzYAQHoAQH4AQuIAgGoAgO4AoiWruUFwAIB;sid=ab2ce10e1cf20ed61f7518ad0a3f6585;dest_id=-846057;dest_type=city;dist=0;group_adults=2;hapos=1;hpos=1;room1=A%2CA;sb_price_type=total;sr_order=popularity;srepoch=1554746130;srpvid=098e7e08599d0179;type=total;ucfs=1&#hotelTmpl", "zip": "05201", "district_id": 810, "region_id": 8, "municipality_id": 543586, "district_name": "Spišská Nová Ves", "region_name": "Košický", "municipality_name": "Spišské Tomášovce", "src": "Facebook Places" }, "geometry": { "type": "Point", "coordinates": [ 20.474760532379001, 48.966793993308997 ] } },
{ "type": "Feature", "properties": { "level_0": 252, "index": 0, "checkins": 4254.0, "city": "Michalovce", "country": "Slovakia", "id": "368321836572234", "is_verified": false, "latitude": 48.757250287204997, "likes_n": 2702.0, "located_in": null, "longitude": 21.922638767997, "name": "Hotel Družba", "rating_count": "206.0", "street": "J.Hollého 698/1", "website": "http://www.hoteldruzbami.sk", "zip": "07101", "district_id": 807, "region_id": 8, "municipality_id": 522279, "district_name": "Michalovce", "region_name": "Košický", "municipality_name": "Michalovce", "src": "Facebook Places" }, "geometry": { "type": "Point", "coordinates": [ 21.922638767997, 48.757250287204997 ] } },
{ "type": "Feature", "properties": { "level_0": 294, "index": 0, "checkins": 4096.0, "city": "Michalovce", "country": "Slovakia", "id": "284526561607074", "is_verified": false, "latitude": 48.811205796503003, "likes_n": 1459.0, "located_in": null, "longitude": 22.009091376000001, "name": "Penzion Juliana", "rating_count": "137.0", "street": null, "website": "www.juliana.sirava.sk/", "zip": "072 36", "district_id": 807, "region_id": 8, "municipality_id": 522589, "district_name": "Michalovce", "region_name": "Košický", "municipality_name": "Kaluža", "src": "Facebook Places" }, "geometry": { "type": "Point", "coordinates": [ 22.009091376, 48.811205796503003 ] } },
{ "type": "Feature", "properties": { "level_0": 298, "index": 0, "checkins": 41.0, "city": "Kaluza", "country": "Slovakia", "id": "1371358189669675", "is_verified": false, "latitude": 48.80866, "likes_n": 150.0, "located_in": null, "longitude": 22.00125, "name": "Rekreačná chata Kaluža, stredisko Kamenec, Zemplínska Šírava", "rating_count": "0.0", "street": null, "website": "NaN", "zip": null, "district_id": 807, "region_id": 8, "municipality_id": 522589, "district_name": "Michalovce", "region_name": "Košický", "municipality_name": "Kaluža", "src": "Facebook Places" }, "geometry": { "type": "Point", "coordinates": [ 22.00125, 48.80866 ] } },
{ "type": "Feature", "properties": { "level_0": 326, "index": 0, "checkins": 1326.0, "city": "Kaluza", "country": "Slovakia", "id": "2015992788417475", "is_verified": false, "latitude": 48.796051309324, "likes_n": 2907.0, "located_in": null, "longitude": 22.006108760834, "name": "Hotel Eurobus - Zemplínska Šírava", "rating_count": "24.0", "street": "Zemplínska šírava", "website": "http://www.hoteleurobus.sk", "zip": "07236", "district_id": 807, "region_id": 8, "municipality_id": 522589, "district_name": "Michalovce", "region_name": "Košický", "municipality_name": "Kaluža", "src": "Facebook Places" }, "geometry": { "type": "Point", "coordinates": [ 22.006108760834, 48.796051309324 ] } },
{ "type": "Feature", "properties": { "level_0": 169, "index": 0, "checkins": 7.0, "city": "Krásnohorská Dlhá Lúka", "country": "Slovakia", "id": "2189030424657126", "is_verified": false, "latitude": 48.62346, "likes_n": 70.0, "located_in": null, "longitude": 20.58065, "name": "Penzión ANIKA", "rating_count": "3.0", "street": "Krásnohorská Dlhá Lúka 223", "website": "http://www.megaubytovanie.sk/apartmany-anika?gclid=Cj0KCQjwsNfOBRCWARIsAGITapZ3Ob31BIZxlrYRU7sp_kODVzxWYV8kDvts3HO7XI-FMmzyMeVLsYwaArqoEALw_wcB", "zip": "04945", "district_id": 808, "region_id": 8, "municipality_id": 525863, "district_name": "Rožňava", "region_name": "Košický", "municipality_name": "Krásnohorská Dlhá Lúka", "src": "Facebook Places" }, "geometry": { "type": "Point", "coordinates": [ 20.58065, 48.62346 ] } },
{ "type": "Feature", "properties": { "level_0": 292, "index": 0, "checkins": 39.0, "city": "Dedinky", "country": "Slovakia", "id": "232824743395893", "is_verified": false, "latitude": 48.863291859002999, "likes_n": 3.0, "located_in": null, "longitude": 20.3860495, "name": "Hotel Priehrada Dedinky - Slovensky Raj", "rating_count": "0.0", "street": null, "website": "NaN", "zip": "04973", "district_id": 808, "region_id": 8, "municipality_id": 525618, "district_name": "Rožňava", "region_name": "Košický", "municipality_name": "Dedinky", "src": "Facebook Places" }, "geometry": { "type": "Point", "coordinates": [ 20.3860495, 48.863291859002999 ] } },
{ "type": "Feature", "properties": { "level_0": 177, "index": 0, "checkins": 371.0, "city": "Krásnohorská Dlhá Lúka", "country": "Slovakia", "id": "506303396070153", "is_verified": false, "latitude": 48.622156908842001, "likes_n": 599.0, "located_in": null, "longitude": 20.575450151338, "name": "Penzion Jozefína - Jozefína Panzió", "rating_count": "37.0", "street": "Krásnohorská Dlhá Lúka 113", "website": "http://www.penzionjozefina.sk/", "zip": "049 45", "district_id": 808, "region_id": 8, "municipality_id": 525863, "district_name": "Rožňava", "region_name": "Košický", "municipality_name": "Krásnohorská Dlhá Lúka", "src": "Facebook Places" }, "geometry": { "type": "Point", "coordinates": [ 20.575450151338, 48.622156908842001 ] } },
{ "type": "Feature", "properties": { "level_0": 7, "index": 0, "checkins": 8.0, "city": "Helcmanovce", "country": "Slovakia", "id": "1736137246691689", "is_verified": false, "latitude": 48.829218, "likes_n": 7.0, "located_in": null, "longitude": 20.8688271, "name": "Penzión Zlatý orol", "rating_count": "1.0", "street": "Hlavná", "website": "NaN", "zip": "05563", "district_id": 801, "region_id": 8, "municipality_id": 526541, "district_name": "Gelnica", "region_name": "Košický", "municipality_name": "Helcmanovce", "src": "Facebook Places" }, "geometry": { "type": "Point", "coordinates": [ 20.8688271, 48.829218 ] } },
{ "type": "Feature", "properties": { "level_0": 123, "index": 0, "checkins": 2.0, "city": "Kosice", "country": "Slovakia", "id": "2210137742574308", "is_verified": false, "latitude": 48.70749, "likes_n": 193.0, "located_in": null, "longitude": 21.25785, "name": "Chata Ružín", "rating_count": "3.0", "street": "Košické Hámre 145", "website": "http://www.ruzin.sk/chata/", "zip": null, "district_id": 805, "region_id": 8, "municipality_id": 599824, "district_name": "Košice IV", "region_name": "Košický", "municipality_name": "Košice-Juh", "src": "Facebook Places" }, "geometry": { "type": "Point", "coordinates": [ 21.25785, 48.70749 ] } },
{ "type": "Feature", "properties": { "level_0": 125, "index": 0, "checkins": 1.0, "city": "Kosice", "country": "Slovakia", "id": "2004714396485565", "is_verified": false, "latitude": 48.700482116441997, "likes_n": 0.0, "located_in": "323495417695695", "longitude": 21.248037667156002, "name": "U Leva", "rating_count": "0.0", "street": "Alejová 6", "website": "NaN", "zip": null, "district_id": 805, "region_id": 8, "municipality_id": 599824, "district_name": "Košice IV", "region_name": "Košický", "municipality_name": "Košice-Juh", "src": "Facebook Places" }, "geometry": { "type": "Point", "coordinates": [ 21.248037667156002, 48.700482116441997 ] } },
{ "type": "Feature", "properties": { "level_0": 133, "index": 0, "checkins": 59.0, "city": "Kosice", "country": "Slovakia", "id": "165364194118177", "is_verified": false, "latitude": 48.72053, "likes_n": 411.0, "located_in": null, "longitude": 21.26008, "name": "Boutique Penzión Slovakia Košice", "rating_count": "8.0", "street": "Orlia 6", "website": "http://www.penzionslovakia.sk", "zip": "04001", "district_id": 802, "region_id": 8, "municipality_id": 598186, "district_name": "Košice I", "region_name": "Košický", "municipality_name": "Košice-Staré Mesto", "src": "Facebook Places" }, "geometry": { "type": "Point", "coordinates": [ 21.26008, 48.72053 ] } },
{ "type": "Feature", "properties": { "level_0": 25, "index": 0, "checkins": 15.0, "city": "Kosice", "country": "Slovakia", "id": "286022995620875", "is_verified": false, "latitude": 48.748888450203999, "likes_n": 0.0, "located_in": null, "longitude": 21.233492458116999, "name": "Penzión Baránok", "rating_count": "0.0", "street": "67 Čermeľská cesta", "website": "http://www.baranok.sk", "zip": "040 01", "district_id": 802, "region_id": 8, "municipality_id": 598151, "district_name": "Košice I", "region_name": "Košický", "municipality_name": "Košice-Sever", "src": "Facebook Places" }, "geometry": { "type": "Point", "coordinates": [ 21.233492458116999, 48.748888450203999 ] } },
{ "type": "Feature", "properties": { "level_0": 48, "index": 0, "checkins": 8663.0, "city": "Kosice", "country": "Slovakia", "id": "185306361512903", "is_verified": false, "latitude": 48.72959, "likes_n": 3254.0, "located_in": null, "longitude": 21.257, "name": "Hotel Yasmin ****, Košice", "rating_count": "357.0", "street": "Tyršovo nábrežie 1", "website": "http://www.hotel-yasmin.sk", "zip": "040 01", "district_id": 802, "region_id": 8, "municipality_id": 598186, "district_name": "Košice I", "region_name": "Košický", "municipality_name": "Košice-Staré Mesto", "src": "Facebook Places" }, "geometry": { "type": "Point", "coordinates": [ 21.257, 48.72959 ] } },
{ "type": "Feature", "properties": { "level_0": 92, "index": 0, "checkins": 0.0, "city": "Dedinky", "country": "Slovakia", "id": "104814864317640", "is_verified": false, "latitude": 48.85787, "likes_n": 1.0, "located_in": null, "longitude": 20.36803, "name": "Dedinky - U Norbiho", "rating_count": "0.0", "street": "Dobšinská Maša 11", "website": "NaN", "zip": "04973", "district_id": 808, "region_id": 8, "municipality_id": 525618, "district_name": "Rožňava", "region_name": "Košický", "municipality_name": "Dedinky", "src": "Facebook Places" }, "geometry": { "type": "Point", "coordinates": [ 20.36803, 48.85787 ] } },
{ "type": "Feature", "properties": { "level_0": 165, "index": 0, "checkins": 11.0, "city": "Betliar", "country": "Slovakia", "id": "543747812330195", "is_verified": false, "latitude": 48.7, "likes_n": 114.0, "located_in": null, "longitude": 20.5167, "name": "Penzión Barónka", "rating_count": "NaN", "street": null, "website": "http://betliarubytovanie.sk", "zip": null, "district_id": 808, "region_id": 8, "municipality_id": 525545, "district_name": "Rožňava", "region_name": "Košický", "municipality_name": "Betliar", "src": "Facebook Places" }, "geometry": { "type": "Point", "coordinates": [ 20.5167, 48.7 ] } },
{ "type": "Feature", "properties": { "level_0": 164, "index": 0, "checkins": 296.0, "city": "Betliar", "country": "Slovakia", "id": "732648450168095", "is_verified": false, "latitude": 48.705721798932998, "likes_n": 627.0, "located_in": null, "longitude": 20.508449961086001, "name": "Penzión pri kaštieli Betliar", "rating_count": "27.0", "street": "Kaštieľna16", "website": "http://www.kastielbetliar.sk", "zip": "04921", "district_id": 808, "region_id": 8, "municipality_id": 525545, "district_name": "Rožňava", "region_name": "Košický", "municipality_name": "Betliar", "src": "Facebook Places" }, "geometry": { "type": "Point", "coordinates": [ 20.508449961086001, 48.705721798932998 ] } },
{ "type": "Feature", "properties": { "level_0": 166, "index": 0, "checkins": 0.0, "city": "Betliar", "country": "Slovakia", "id": "1186215224892675", "is_verified": false, "latitude": 48.705714996188, "likes_n": 0.0, "located_in": null, "longitude": 20.508487845539999, "name": "Penzión pri Kaštieli Betliar", "rating_count": "0.0", "street": "16 Kaštieľna", "website": "http://www.kastielbetliar.sk/", "zip": "049 21", "district_id": 808, "region_id": 8, "municipality_id": 525545, "district_name": "Rožňava", "region_name": "Košický", "municipality_name": "Betliar", "src": "Facebook Places" }, "geometry": { "type": "Point", "coordinates": [ 20.508487845539999, 48.705714996188 ] } },
{ "type": "Feature", "properties": { "level_0": 428, "index": 0, "checkins": 1035.0, "city": "Spisska Nova Ves", "country": "Slovakia", "id": "165582060164824", "is_verified": false, "latitude": 48.942174305438002, "likes_n": 74.0, "located_in": null, "longitude": 20.571623642877999, "name": "Venuša", "rating_count": "13.0", "street": "Zimná", "website": "http://www.venusa.eu/new/", "zip": "05201", "district_id": 810, "region_id": 8, "municipality_id": 526355, "district_name": "Spišská Nová Ves", "region_name": "Košický", "municipality_name": "Spišská Nová Ves", "src": "Facebook Places" }, "geometry": { "type": "Point", "coordinates": [ 20.571623642877999, 48.942174305438002 ] } },
{ "type": "Feature", "properties": { "level_0": 435, "index": 0, "checkins": 38.0, "city": "Spisska Nova Ves", "country": "Slovakia", "id": "822326687805330", "is_verified": false, "latitude": 48.918864, "likes_n": 43.0, "located_in": null, "longitude": 20.540803, "name": "Penzión Rittenberg", "rating_count": "0.0", "street": "Ferčekovce 3115", "website": "http://www.rittenberg.szm.com", "zip": "05201", "district_id": 810, "region_id": 8, "municipality_id": 526355, "district_name": "Spišská Nová Ves", "region_name": "Košický", "municipality_name": "Spišská Nová Ves", "src": "Facebook Places" }, "geometry": { "type": "Point", "coordinates": [ 20.540803, 48.918864 ] } },
{ "type": "Feature", "properties": { "level_0": 85, "index": 0, "checkins": 616.0, "city": "Kosice", "country": "Slovakia", "id": "341146425972363", "is_verified": false, "latitude": 48.725455478573998, "likes_n": 514.0, "located_in": null, "longitude": 21.251552105710001, "name": "City Residence Apartment Hotel (official website)", "rating_count": "49.0", "street": "Bačíkova 18", "website": "http://www.cityresidence.sk/", "zip": "040 01", "district_id": 802, "region_id": 8, "municipality_id": 598186, "district_name": "Košice I", "region_name": "Košický", "municipality_name": "Košice-Staré Mesto", "src": "Facebook Places" }, "geometry": { "type": "Point", "coordinates": [ 21.251552105710001, 48.725455478573998 ] } },
{ "type": "Feature", "properties": { "level_0": 437, "index": 0, "checkins": 11.0, "city": "Spisska Nova Ves", "country": "Slovakia", "id": "288415665114380", "is_verified": false, "latitude": 48.944589631593999, "likes_n": 0.0, "located_in": null, "longitude": 20.563316630463, "name": "Parkhotel Spišská Nováková Ves", "rating_count": "0.0", "street": null, "website": "NaN", "zip": null, "district_id": 810, "region_id": 8, "municipality_id": 526355, "district_name": "Spišská Nová Ves", "region_name": "Košický", "municipality_name": "Spišská Nová Ves", "src": "Facebook Places" }, "geometry": { "type": "Point", "coordinates": [ 20.563316630463, 48.944589631593999 ] } },
{ "type": "Feature", "properties": { "level_0": 451, "index": 0, "checkins": 18.0, "city": "Smizany", "country": "Slovakia", "id": "167208900435104", "is_verified": false, "latitude": 48.95756, "likes_n": 252.0, "located_in": null, "longitude": 20.52693, "name": "Penzión Milka", "rating_count": "9.0", "street": "Štefánikova 25", "website": "www.penzionmilka.sk", "zip": "05311", "district_id": 810, "region_id": 8, "municipality_id": 560154, "district_name": "Spišská Nová Ves", "region_name": "Košický", "municipality_name": "Smižany", "src": "Facebook Places" }, "geometry": { "type": "Point", "coordinates": [ 20.52693, 48.95756 ] } },
{ "type": "Feature", "properties": { "level_0": 89, "index": 0, "checkins": 3403.0, "city": "Kosice", "country": "Slovakia", "id": "216461045065927", "is_verified": false, "latitude": 48.72482, "likes_n": 3795.0, "located_in": null, "longitude": 21.25967, "name": "GOLDEN ROYAL Boutique hotel & SPA****", "rating_count": "160.0", "street": "Vodna 8", "website": "http://www.GoldenRoyal.sk", "zip": "04001", "district_id": 802, "region_id": 8, "municipality_id": 598186, "district_name": "Košice I", "region_name": "Košický", "municipality_name": "Košice-Staré Mesto", "src": "Facebook Places" }, "geometry": { "type": "Point", "coordinates": [ 21.25967, 48.72482 ] } },
{ "type": "Feature", "properties": { "level_0": 97, "index": 0, "checkins": 92.0, "city": "Kosice", "country": "Slovakia", "id": "492113014242324", "is_verified": false, "latitude": 48.701546108000002, "likes_n": 393.0, "located_in": "384006158741105", "longitude": 21.248292955, "name": "Penzión Alejová Košice", "rating_count": "1.0", "street": "Alejová 2", "website": "www.penzionalejova.sk", "zip": "040 11", "district_id": 805, "region_id": 8, "municipality_id": 599824, "district_name": "Košice IV", "region_name": "Košický", "municipality_name": "Košice-Juh", "src": "Facebook Places" }, "geometry": { "type": "Point", "coordinates": [ 21.248292955, 48.701546108 ] } },
{ "type": "Feature", "properties": { "level_0": 584, "index": 0, "checkins": 12.0, "city": "Trebisov", "country": "Slovakia", "id": "318001581648595", "is_verified": false, "latitude": 48.627345479313, "likes_n": 383.0, "located_in": null, "longitude": 21.719292872417, "name": "Soľná jaskyňa Trebišov", "rating_count": "9.0", "street": "M.R. Štefánika 60", "website": "http://www.solnajaskynatv.eu/", "zip": "07501", "district_id": 811, "region_id": 8, "municipality_id": 528099, "district_name": "Trebišov", "region_name": "Košický", "municipality_name": "Trebišov", "src": "Facebook Places" }, "geometry": { "type": "Point", "coordinates": [ 21.719292872417, 48.627345479313 ] } },
{ "type": "Feature", "properties": { "level_0": 586, "index": 0, "checkins": 17.0, "city": "Trebisov", "country": "Slovakia", "id": "1363031800385703", "is_verified": false, "latitude": 48.63166, "likes_n": 540.0, "located_in": null, "longitude": 21.71206, "name": "Privát Trebišov", "rating_count": "NaN", "street": "Jana Husa 23", "website": "NaN", "zip": "07501", "district_id": 811, "region_id": 8, "municipality_id": 528099, "district_name": "Trebišov", "region_name": "Košický", "municipality_name": "Trebišov", "src": "Facebook Places" }, "geometry": { "type": "Point", "coordinates": [ 21.71206, 48.63166 ] } },
{ "type": "Feature", "properties": { "level_0": 588, "index": 0, "checkins": 1619.0, "city": "Malý Ruskov", "country": "Slovakia", "id": "1566612813568176", "is_verified": false, "latitude": 48.635645890908997, "likes_n": 4038.0, "located_in": "208636962490952", "longitude": 21.661611790908001, "name": "Penzión Precedens", "rating_count": "90.0", "street": "Jarková 61", "website": "http://www.penzionprecedens.sk", "zip": "075 01", "district_id": 811, "region_id": 8, "municipality_id": 528625, "district_name": "Trebišov", "region_name": "Košický", "municipality_name": "Nový Ruskov", "src": "Facebook Places" }, "geometry": { "type": "Point", "coordinates": [ 21.661611790908001, 48.635645890908997 ] } },
{ "type": "Feature", "properties": { "level_0": 589, "index": 0, "checkins": 760.0, "city": "Trebisov", "country": "Slovakia", "id": "142756935813703", "is_verified": false, "latitude": 48.618116494180001, "likes_n": 63.0, "located_in": null, "longitude": 21.719481989548001, "name": "Hotel Zemplin", "rating_count": "18.0", "street": "M. R. Štefánika 861/230", "website": "http://www.hotelzemplin.sk/", "zip": "07501", "district_id": 811, "region_id": 8, "municipality_id": 528099, "district_name": "Trebišov", "region_name": "Košický", "municipality_name": "Trebišov", "src": "Facebook Places" }, "geometry": { "type": "Point", "coordinates": [ 21.719481989548001, 48.618116494180001 ] } },
{ "type": "Feature", "properties": { "level_0": 591, "index": 0, "checkins": 175.0, "city": "Hriadky", "country": "Slovakia", "id": "412834018795918", "is_verified": false, "latitude": 48.698974915699999, "likes_n": 30.0, "located_in": null, "longitude": 21.707680407961, "name": "Motorest Kanada", "rating_count": "2.0", "street": "Hlavná 166", "website": "http://www.motorestkanada.eu/", "zip": "07622", "district_id": 811, "region_id": 8, "municipality_id": 528382, "district_name": "Trebišov", "region_name": "Košický", "municipality_name": "Hriadky", "src": "Facebook Places" }, "geometry": { "type": "Point", "coordinates": [ 21.707680407961, 48.698974915699999 ] } },
{ "type": "Feature", "properties": { "level_0": 593, "index": 0, "checkins": 2.0, "city": "Secovce", "country": "Slovakia", "id": "1780425815436906", "is_verified": false, "latitude": 48.70116, "likes_n": 136.0, "located_in": "726588014342293", "longitude": 21.66491, "name": "Ubytovanie \"Basa u Kmeťa\"", "rating_count": "1.0", "street": "Kochanovská 327", "website": "NaN", "zip": "07801", "district_id": 811, "region_id": 8, "municipality_id": 528722, "district_name": "Trebišov", "region_name": "Košický", "municipality_name": "Sečovce", "src": "Facebook Places" }, "geometry": { "type": "Point", "coordinates": [ 21.66491, 48.70116 ] } },
{ "type": "Feature", "properties": { "level_0": 293, "index": 0, "checkins": 12.0, "city": "Roznava", "country": "Slovakia", "id": "1100235543337981", "is_verified": false, "latitude": 48.8647, "likes_n": 747.0, "located_in": null, "longitude": 20.38412, "name": "Chata Máša - Dedinky ubytovanie", "rating_count": "0.0", "street": "Dedinky", "website": "www.chata-masa.webnode.sk", "zip": "04973", "district_id": 808, "region_id": 8, "municipality_id": 525618, "district_name": "Rožňava", "region_name": "Košický", "municipality_name": "Dedinky", "src": "Facebook Places" }, "geometry": { "type": "Point", "coordinates": [ 20.38412, 48.8647 ] } },
{ "type": "Feature", "properties": { "level_0": 294, "index": 0, "checkins": 1.0, "city": "Dedinky", "country": "Slovakia", "id": "316063449235351", "is_verified": false, "latitude": 48.8664, "likes_n": 48.0, "located_in": null, "longitude": 20.38192, "name": "Penzion Dúha", "rating_count": "0.0", "street": "Dedinky 33", "website": "NaN", "zip": "04973", "district_id": 808, "region_id": 8, "municipality_id": 525618, "district_name": "Rožňava", "region_name": "Košický", "municipality_name": "Dedinky", "src": "Facebook Places" }, "geometry": { "type": "Point", "coordinates": [ 20.38192, 48.8664 ] } },
{ "type": "Feature", "properties": { "level_0": 311, "index": 0, "checkins": 20.0, "city": "Hrabusice", "country": "Slovakia", "id": "1053915941368976", "is_verified": false, "latitude": 48.98118, "likes_n": 139.0, "located_in": null, "longitude": 20.40504, "name": "Villa MEDIASi", "rating_count": "3.0", "street": "Bernolákova 307", "website": "www.villamediasi.sk", "zip": "05315", "district_id": 810, "region_id": 8, "municipality_id": 526592, "district_name": "Spišská Nová Ves", "region_name": "Košický", "municipality_name": "Hrabušice", "src": "Facebook Places" }, "geometry": { "type": "Point", "coordinates": [ 20.40504, 48.98118 ] } },
{ "type": "Feature", "properties": { "level_0": 316, "index": 0, "checkins": 53.0, "city": "Hrabusice", "country": "Slovakia", "id": "196906283683947", "is_verified": false, "latitude": 48.977340506742003, "likes_n": 2906.0, "located_in": null, "longitude": 20.415764645522, "name": "Hotel Petra", "rating_count": "58.0", "street": "Gaštanová 18", "website": "www.hotelpetra.sk e-mail: petraroyal@hotelpetra.sk", "zip": "053 15", "district_id": 810, "region_id": 8, "municipality_id": 526592, "district_name": "Spišská Nová Ves", "region_name": "Košický", "municipality_name": "Hrabušice", "src": "Facebook Places" }, "geometry": { "type": "Point", "coordinates": [ 20.415764645522, 48.977340506742003 ] } },
{ "type": "Feature", "properties": { "level_0": 310, "index": 0, "checkins": 72.0, "city": "Hrabusice", "country": "Slovakia", "id": "1409073389387963", "is_verified": false, "latitude": 48.97296, "likes_n": 105.0, "located_in": null, "longitude": 20.40317, "name": "Villa Raj", "rating_count": "18.0", "street": "Hlavná 205", "website": "http://www.villaraj.sk", "zip": "05315", "district_id": 810, "region_id": 8, "municipality_id": 526592, "district_name": "Spišská Nová Ves", "region_name": "Košický", "municipality_name": "Hrabušice", "src": "Facebook Places" }, "geometry": { "type": "Point", "coordinates": [ 20.40317, 48.97296 ] } },
{ "type": "Feature", "properties": { "level_0": 312, "index": 0, "checkins": 21.0, "city": "Hrabusice", "country": "Slovakia", "id": "627971977304782", "is_verified": false, "latitude": 48.9790306, "likes_n": 15.0, "located_in": null, "longitude": 20.4061604, "name": "Privat Milan & Miriam", "rating_count": "7.0", "street": "Slovenského raja 269/31", "website": "NaN", "zip": "053 15", "district_id": 810, "region_id": 8, "municipality_id": 526592, "district_name": "Spišská Nová Ves", "region_name": "Košický", "municipality_name": "Hrabušice", "src": "Facebook Places" }, "geometry": { "type": "Point", "coordinates": [ 20.4061604, 48.9790306 ] } },
{ "type": "Feature", "properties": { "level_0": 315, "index": 0, "checkins": 5.0, "city": "Hrabusice", "country": "Slovakia", "id": "370434583024688", "is_verified": false, "latitude": 48.9766199, "likes_n": 26.0, "located_in": null, "longitude": 20.41443, "name": "Vikendový domček TIS", "rating_count": "5.0", "street": "Gaštanová 540/9", "website": "www.poniklec.sk", "zip": "05315", "district_id": 810, "region_id": 8, "municipality_id": 526592, "district_name": "Spišská Nová Ves", "region_name": "Košický", "municipality_name": "Hrabušice", "src": "Facebook Places" }, "geometry": { "type": "Point", "coordinates": [ 20.41443, 48.9766199 ] } },
{ "type": "Feature", "properties": { "level_0": 424, "index": 0, "checkins": 14.0, "city": "Spisska Nova Ves", "country": "Slovakia", "id": "106943109745949", "is_verified": false, "latitude": 48.9495999, "likes_n": 9.0, "located_in": null, "longitude": 20.56237, "name": "Penzión RESA", "rating_count": "1.0", "street": "Fabiniho 10", "website": "http://www.penzionresa.sk", "zip": "052 01", "district_id": 810, "region_id": 8, "municipality_id": 526355, "district_name": "Spišská Nová Ves", "region_name": "Košický", "municipality_name": "Spišská Nová Ves", "src": "Facebook Places" }, "geometry": { "type": "Point", "coordinates": [ 20.56237, 48.9495999 ] } },
{ "type": "Feature", "properties": { "level_0": 460, "index": 0, "checkins": 11.0, "city": "Spisska Nova Ves", "country": "Slovakia", "id": "132940070247711", "is_verified": false, "latitude": 48.95146, "likes_n": 78.0, "located_in": null, "longitude": 20.54097, "name": "Penzión Slovdekra", "rating_count": "4.0", "street": "Duklianska 57", "website": "NaN", "zip": "052 01", "district_id": 810, "region_id": 8, "municipality_id": 526355, "district_name": "Spišská Nová Ves", "region_name": "Košický", "municipality_name": "Spišská Nová Ves", "src": "Facebook Places" }, "geometry": { "type": "Point", "coordinates": [ 20.54097, 48.95146 ] } },
{ "type": "Feature", "properties": { "level_0": 476, "index": 0, "checkins": 8.0, "city": "Smizany", "country": "Slovakia", "id": "396884864480639", "is_verified": false, "latitude": 48.95497, "likes_n": 1.0, "located_in": null, "longitude": 20.5287296, "name": "Penzión Mária", "rating_count": "0.0", "street": "4 Kukučínova", "website": "http://www.penzionmaria.sk", "zip": "053 11", "district_id": 810, "region_id": 8, "municipality_id": 560154, "district_name": "Spišská Nová Ves", "region_name": "Košický", "municipality_name": "Smižany", "src": "Facebook Places" }, "geometry": { "type": "Point", "coordinates": [ 20.5287296, 48.95497 ] } },
{ "type": "Feature", "properties": { "level_0": 477, "index": 0, "checkins": 4.0, "city": "Smizany", "country": "Slovakia", "id": "517966205350953", "is_verified": false, "latitude": 48.955005400007003, "likes_n": 0.0, "located_in": null, "longitude": 20.528691633348, "name": "penzión Mária", "rating_count": "0.0", "street": null, "website": "NaN", "zip": null, "district_id": 810, "region_id": 8, "municipality_id": 560154, "district_name": "Spišská Nová Ves", "region_name": "Košický", "municipality_name": "Smižany", "src": "Facebook Places" }, "geometry": { "type": "Point", "coordinates": [ 20.528691633348, 48.955005400007003 ] } },
{ "type": "Feature", "properties": { "level_0": 478, "index": 0, "checkins": 9.0, "city": "Spisska Nova Ves", "country": "Slovakia", "id": "491537890867003", "is_verified": false, "latitude": 48.9348699, "likes_n": 80.0, "located_in": null, "longitude": 20.57201, "name": "Panorama City", "rating_count": "0.0", "street": "Sadová 1", "website": "http://panoramacity-sro.sk/bytovy-dom-sadova-1", "zip": "05201", "district_id": 810, "region_id": 8, "municipality_id": 526355, "district_name": "Spišská Nová Ves", "region_name": "Košický", "municipality_name": "Spišská Nová Ves", "src": "Facebook Places" }, "geometry": { "type": "Point", "coordinates": [ 20.57201, 48.9348699 ] } },
{ "type": "Feature", "properties": { "level_0": 479, "index": 0, "checkins": 22.0, "city": "Smizany", "country": "Slovakia", "id": "329321394100410", "is_verified": false, "latitude": 48.9582422, "likes_n": 2.0, "located_in": null, "longitude": 20.5190751, "name": "Penzion Anna Maria Smižany", "rating_count": "0.0", "street": "namestie M.Pajdušáka 7", "website": "NaN", "zip": null, "district_id": 810, "region_id": 8, "municipality_id": 560154, "district_name": "Spišská Nová Ves", "region_name": "Košický", "municipality_name": "Smižany", "src": "Facebook Places" }, "geometry": { "type": "Point", "coordinates": [ 20.5190751, 48.9582422 ] } },
{ "type": "Feature", "properties": { "level_0": 483, "index": 0, "checkins": 7.0, "city": "Danisovce", "country": "Slovakia", "id": "1964779313642407", "is_verified": false, "latitude": 48.948775660199999, "likes_n": 0.0, "located_in": null, "longitude": 20.621398554982001, "name": "ÚVZ Danišovce", "rating_count": "0.0", "street": null, "website": "NaN", "zip": null, "district_id": 810, "region_id": 8, "municipality_id": 526444, "district_name": "Spišská Nová Ves", "region_name": "Košický", "municipality_name": "Danišovce", "src": "Facebook Places" }, "geometry": { "type": "Point", "coordinates": [ 20.621398554982001, 48.948775660199999 ] } },
{ "type": "Feature", "properties": { "level_0": 554, "index": 0, "checkins": 11.0, "city": "Secovce", "country": "Slovakia", "id": "308111566459966", "is_verified": false, "latitude": 48.703246718993, "likes_n": 1.0, "located_in": null, "longitude": 21.647679805755999, "name": "Hotel Korzo", "rating_count": "0.0", "street": "Dargovských hrdinov 64", "website": "NaN", "zip": null, "district_id": 811, "region_id": 8, "municipality_id": 528722, "district_name": "Trebišov", "region_name": "Košický", "municipality_name": "Sečovce", "src": "Facebook Places" }, "geometry": { "type": "Point", "coordinates": [ 21.647679805755999, 48.703246718993 ] } },
{ "type": "Feature", "properties": { "level_0": 196, "index": 0, "checkins": 7.0, "city": "Krásnohorské Podhradie", "country": "Slovakia", "id": "612390818853959", "is_verified": false, "latitude": 48.6499, "likes_n": 152.0, "located_in": null, "longitude": 20.60148, "name": "Farebný Penzión", "rating_count": "1.0", "street": "Osloboditeľov 296", "website": "www.farebnypenzion.sk", "zip": "04941", "district_id": 808, "region_id": 8, "municipality_id": 525871, "district_name": "Rožňava", "region_name": "Košický", "municipality_name": "Krásnohorské Podhradie", "src": "Facebook Places" }, "geometry": { "type": "Point", "coordinates": [ 20.60148, 48.6499 ] } },
{ "type": "Feature", "properties": { "level_0": 195, "index": 0, "checkins": 11.0, "city": "Jablonov nad Turnou", "country": "Slovakia", "id": "618308478313122", "is_verified": false, "latitude": 48.6, "likes_n": 194.0, "located_in": null, "longitude": 20.6833, "name": "Hostinec Szádivó", "rating_count": "5.0", "street": "Jablonov nad Turňou", "website": "NaN", "zip": "04943", "district_id": 808, "region_id": 8, "municipality_id": 525782, "district_name": "Rožňava", "region_name": "Košický", "municipality_name": "Jablonov nad Turňou", "src": "Facebook Places" }, "geometry": { "type": "Point", "coordinates": [ 20.6833, 48.6 ] } },
{ "type": "Feature", "properties": { "level_0": 197, "index": 0, "checkins": 22.0, "city": "Krásnohorské Podhradie", "country": "Slovakia", "id": "1408830386004448", "is_verified": false, "latitude": 48.647553340053001, "likes_n": 0.0, "located_in": null, "longitude": 20.597874384971, "name": "Pension Žaneta", "rating_count": "0.0", "street": null, "website": "NaN", "zip": "04941", "district_id": 808, "region_id": 8, "municipality_id": 525871, "district_name": "Rožňava", "region_name": "Košický", "municipality_name": "Krásnohorské Podhradie", "src": "Facebook Places" }, "geometry": { "type": "Point", "coordinates": [ 20.597874384971, 48.647553340053001 ] } },
{ "type": "Feature", "properties": { "level_0": 316, "index": 0, "checkins": 1.0, "city": "Klokocov", "country": "Slovakia", "id": "2104647763180520", "is_verified": false, "latitude": 48.810680389403998, "likes_n": 1.0, "located_in": null, "longitude": 22.017433166503999, "name": "Hotel Energetik", "rating_count": "0.0", "street": null, "website": "NaN", "zip": null, "district_id": 807, "region_id": 8, "municipality_id": 522597, "district_name": "Michalovce", "region_name": "Košický", "municipality_name": "Klokočov", "src": "Facebook Places" }, "geometry": { "type": "Point", "coordinates": [ 22.017433166503999, 48.810680389403998 ] } },
{ "type": "Feature", "properties": { "level_0": 581, "index": 0, "checkins": 10.0, "city": "Malá Tŕňa", "country": "xxx", "id": "273817393417043", "is_verified": false, "latitude": 48.45574, "likes_n": 61.0, "located_in": null, "longitude": 21.68235, "name": "Chalupa Esencia", "rating_count": "3.0", "street": "Kostolná 30", "website": "http://www.chalupaesencia.sk", "zip": "076 82", "district_id": 811, "region_id": 8, "municipality_id": 513792, "district_name": "Trebišov", "region_name": "Košický", "municipality_name": "Malá Tŕňa", "src": "Facebook Places" }, "geometry": { "type": "Point", "coordinates": [ 21.68235, 48.45574 ] } },
{ "type": "Feature", "properties": { "level_0": 25, "index": 0, "checkins": 1.0, "city": "Rejdová", "country": "Slovakia", "id": "1844475099111448", "is_verified": false, "latitude": 48.789311545507999, "likes_n": 23.0, "located_in": null, "longitude": 20.278994465189001, "name": "Ubytovanie u Tomkov", "rating_count": "1.0", "street": "172", "website": "NaN", "zip": "04926", "district_id": 808, "region_id": 8, "municipality_id": 526134, "district_name": "Rožňava", "region_name": "Košický", "municipality_name": "Rejdová", "src": "Facebook Places" }, "geometry": { "type": "Point", "coordinates": [ 20.278994465189001, 48.789311545507999 ] } },
{ "type": "Feature", "properties": { "level_0": 351, "index": 0, "checkins": 52.0, "city": "Velke Kapusany", "country": "Slovakia", "id": "1553252105001656", "is_verified": false, "latitude": 48.550890218896001, "likes_n": 1991.0, "located_in": null, "longitude": 22.082991600037001, "name": "Penzion Griff", "rating_count": "4.0", "street": "Hlavná 3.", "website": "http://www.griff.sk", "zip": "07901", "district_id": 807, "region_id": 8, "municipality_id": 543853, "district_name": "Michalovce", "region_name": "Košický", "municipality_name": "Veľké Kapušany", "src": "Facebook Places" }, "geometry": { "type": "Point", "coordinates": [ 22.082991600037001, 48.550890218896001 ] } },
{ "type": "Feature", "properties": { "level_0": 48, "index": 0, "checkins": 129.0, "city": "Gemerská Panica", "country": "Slovakia", "id": "563704216994777", "is_verified": false, "latitude": 48.471059310053001, "likes_n": 369.0, "located_in": null, "longitude": 20.346126780033, "name": "Penzión Kaštieľ Szigety - Castle Szigety", "rating_count": "7.0", "street": "230", "website": "http://bohemia.nl/Vakantiehuizen/Slowakije/Gemerska%20Panica/3435_vakantie-Kasteel-Szigety.html", "zip": "98046", "district_id": 808, "region_id": 8, "municipality_id": 514748, "district_name": "Rožňava", "region_name": "Košický", "municipality_name": "Gemerská Panica", "src": "Facebook Places" }, "geometry": { "type": "Point", "coordinates": [ 20.346126780033, 48.471059310053001 ] } },
{ "type": "Feature", "properties": { "level_0": 50, "index": 0, "checkins": 4.0, "city": "Dlhá Ves", "country": "Slovakia", "id": "380537476128173", "is_verified": false, "latitude": 48.495173, "likes_n": 1.0, "located_in": null, "longitude": 20.4394411, "name": "Apartments Sarika", "rating_count": "0.0", "street": "Malá", "website": "NaN", "zip": "049 55", "district_id": 808, "region_id": 8, "municipality_id": 525626, "district_name": "Rožňava", "region_name": "Košický", "municipality_name": "Dlhá Ves", "src": "Facebook Places" }, "geometry": { "type": "Point", "coordinates": [ 20.4394411, 48.495173 ] } },
{ "type": "Feature", "properties": { "level_0": 54, "index": 0, "checkins": 172.0, "city": "Gemerská Horka", "country": "Slovakia", "id": "285114501552334", "is_verified": false, "latitude": 48.5394297, "likes_n": 1282.0, "located_in": null, "longitude": 20.382661, "name": "Penzión Skalná ruža - Kövirózsa panzió", "rating_count": "17.0", "street": null, "website": "http://www.penzionskalnaruza.sk", "zip": null, "district_id": 808, "region_id": 8, "municipality_id": 525651, "district_name": "Rožňava", "region_name": "Košický", "municipality_name": "Gemerská Hôrka", "src": "Facebook Places" }, "geometry": { "type": "Point", "coordinates": [ 20.382661, 48.5394297 ] } },
{ "type": "Feature", "properties": { "level_0": 56, "index": 0, "checkins": 7.0, "city": "Stitnik", "country": "Slovakia", "id": "547807338651497", "is_verified": false, "latitude": 48.6667, "likes_n": 157.0, "located_in": null, "longitude": 20.3667, "name": "CHalupa Danka", "rating_count": "1.0", "street": "Ochtinská 444", "website": "http://www.chalupadanka.eu", "zip": "04932", "district_id": 808, "region_id": 8, "municipality_id": 526312, "district_name": "Rožňava", "region_name": "Košický", "municipality_name": "Štítnik", "src": "Facebook Places" }, "geometry": { "type": "Point", "coordinates": [ 20.3667, 48.6667 ] } },
{ "type": "Feature", "properties": { "level_0": 63, "index": 0, "checkins": 24.0, "city": "Dedinky", "country": "Slovakia", "id": "1166362790051424", "is_verified": false, "latitude": 48.85849, "likes_n": 23.0, "located_in": null, "longitude": 20.3731, "name": "Aqualand Cottage", "rating_count": "4.0", "street": "Dobšinská Maša 85", "website": "http://www.slovenskyraj.sk/aqualand/", "zip": "04973", "district_id": 808, "region_id": 8, "municipality_id": 525618, "district_name": "Rožňava", "region_name": "Košický", "municipality_name": "Dedinky", "src": "Facebook Places" }, "geometry": { "type": "Point", "coordinates": [ 20.3731, 48.85849 ] } },
{ "type": "Feature", "properties": { "level_0": 201, "index": 0, "checkins": 3.0, "city": "Zádiel", "country": "Slovakia", "id": "1994329134215811", "is_verified": false, "latitude": 48.61255, "likes_n": 109.0, "located_in": null, "longitude": 20.8333, "name": "Apartman Silver", "rating_count": "0.0", "street": "Zádiel č. 42", "website": "https://apartmansilver.sk/", "zip": "04402", "district_id": 806, "region_id": 8, "municipality_id": 559881, "district_name": "Košice - okolie", "region_name": "Košický", "municipality_name": "Zádiel", "src": "Facebook Places" }, "geometry": { "type": "Point", "coordinates": [ 20.8333, 48.61255 ] } },
{ "type": "Feature", "properties": { "level_0": 203, "index": 0, "checkins": 40.0, "city": "Blatná Polianka", "country": "Slovakia", "id": "1609903762573961", "is_verified": false, "latitude": 48.68769, "likes_n": 306.0, "located_in": null, "longitude": 22.10709, "name": "Ranč Nová zem", "rating_count": "5.0", "street": "53 Blatná Polianka", "website": "http://www.rancnovazem.sk", "zip": "072 44", "district_id": 809, "region_id": 8, "municipality_id": 522333, "district_name": "Sobrance", "region_name": "Košický", "municipality_name": "Blatná Polianka", "src": "Facebook Places" }, "geometry": { "type": "Point", "coordinates": [ 22.10709, 48.68769 ] } },
{ "type": "Feature", "properties": { "level_0": 208, "index": 0, "checkins": 9.0, "city": "Sobrance", "country": "Slovakia", "id": "465280710234852", "is_verified": false, "latitude": 48.74271, "likes_n": 1999.0, "located_in": null, "longitude": 22.18574, "name": "zbalsikufor.sk", "rating_count": "29.0", "street": "Tibavská 5", "website": "http://www.zbalsikufor.sk", "zip": "07301", "district_id": 809, "region_id": 8, "municipality_id": 523089, "district_name": "Sobrance", "region_name": "Košický", "municipality_name": "Sobrance", "src": "Facebook Places" }, "geometry": { "type": "Point", "coordinates": [ 22.18574, 48.74271 ] } },
{ "type": "Feature", "properties": { "level_0": 95, "index": 0, "checkins": 1.0, "city": "Mlynky a Havrania Dolina", "country": "Slovakia", "id": "725698894163622", "is_verified": false, "latitude": 48.856181094995002, "likes_n": 223.0, "located_in": null, "longitude": 20.416502952576, "name": "Chata Derdák", "rating_count": "2.0", "street": "Mlynky", "website": "http://chata-derdak.business.site/", "zip": "05376", "district_id": 810, "region_id": 8, "municipality_id": 543357, "district_name": "Spišská Nová Ves", "region_name": "Košický", "municipality_name": "Mlynky", "src": "Facebook Places" }, "geometry": { "type": "Point", "coordinates": [ 20.416502952576, 48.856181094995002 ] } },
{ "type": "Feature", "properties": { "level_0": 206, "index": 0, "checkins": 21.0, "city": "Vysne Revistia", "country": "Slovakia", "id": "2110480599012166", "is_verified": false, "latitude": 48.74508, "likes_n": 12.0, "located_in": null, "longitude": 22.0929, "name": "Motel Toscana", "rating_count": "0.0", "street": "Veľké Revištia, 161", "website": "http://gmail.com/", "zip": "072 43", "district_id": 809, "region_id": 8, "municipality_id": 523232, "district_name": "Sobrance", "region_name": "Košický", "municipality_name": "Veľké Revištia", "src": "Facebook Places" }, "geometry": { "type": "Point", "coordinates": [ 22.0929, 48.74508 ] } },
{ "type": "Feature", "properties": { "level_0": 269, "index": 0, "checkins": 1.0, "city": "Hrabusice", "country": "Slovakia", "id": "493210780814911", "is_verified": false, "latitude": 48.94577, "likes_n": 23.0, "located_in": null, "longitude": 20.34692, "name": "Chata Kubekovcov", "rating_count": "1.0", "street": "Hrabušice Píla", "website": "http://robertkubek3.wix.com/chata-kubekovcov", "zip": "053 15", "district_id": 810, "region_id": 8, "municipality_id": 526592, "district_name": "Spišská Nová Ves", "region_name": "Košický", "municipality_name": "Hrabušice", "src": "Facebook Places" }, "geometry": { "type": "Point", "coordinates": [ 20.34692, 48.94577 ] } },
{ "type": "Feature", "properties": { "level_0": 274, "index": 0, "checkins": 1.0, "city": "Hrabusice", "country": "Slovakia", "id": "106721974035885", "is_verified": false, "latitude": 48.97433, "likes_n": 56.0, "located_in": null, "longitude": 20.4051, "name": "Chata EDEN Hrabusice", "rating_count": "0.0", "street": "Makovickeho", "website": "https://www.chataeden.sk/sk/kontakty", "zip": "05315", "district_id": 810, "region_id": 8, "municipality_id": 526592, "district_name": "Spišská Nová Ves", "region_name": "Košický", "municipality_name": "Hrabušice", "src": "Facebook Places" }, "geometry": { "type": "Point", "coordinates": [ 20.4051, 48.97433 ] } },
{ "type": "Feature", "properties": { "level_0": 332, "index": 0, "checkins": 128.0, "city": "Hrabusice", "country": "Slovakia", "id": "2257901481107499", "is_verified": false, "latitude": 48.963522481071998, "likes_n": 5.0, "located_in": null, "longitude": 20.384250451418001, "name": "Autocamping Podlesok", "rating_count": "0.0", "street": "Hlavná 171", "website": "NaN", "zip": "053 15", "district_id": 810, "region_id": 8, "municipality_id": 526592, "district_name": "Spišská Nová Ves", "region_name": "Košický", "municipality_name": "Hrabušice", "src": "Facebook Places" }, "geometry": { "type": "Point", "coordinates": [ 20.384250451418001, 48.963522481071998 ] } },
{ "type": "Feature", "properties": { "level_0": 382, "index": 0, "checkins": 2.0, "city": "Spisske Tomasovce", "country": "Slovakia", "id": "1379236468994858", "is_verified": false, "latitude": 48.95859, "likes_n": 95.0, "located_in": null, "longitude": 20.47042, "name": "WENT - Ubytovanie v Slovenskom raji", "rating_count": "4.0", "street": "Kostolná 281/31", "website": "http://www.slovenskyraj.sk/went", "zip": "05201", "district_id": 810, "region_id": 8, "municipality_id": 543586, "district_name": "Spišská Nová Ves", "region_name": "Košický", "municipality_name": "Spišské Tomášovce", "src": "Facebook Places" }, "geometry": { "type": "Point", "coordinates": [ 20.47042, 48.95859 ] } },
{ "type": "Feature", "properties": { "level_0": 386, "index": 0, "checkins": 10.0, "city": "Arnutovce", "country": "Slovakia", "id": "1543753829221520", "is_verified": false, "latitude": 48.9798508, "likes_n": 179.0, "located_in": null, "longitude": 20.4930592, "name": "Penzión HOME", "rating_count": "10.0", "street": "Arnutovce 119", "website": "http://www.penzion-home.sk", "zip": "05313", "district_id": 810, "region_id": 8, "municipality_id": 526363, "district_name": "Spišská Nová Ves", "region_name": "Košický", "municipality_name": "Arnutovce", "src": "Facebook Places" }, "geometry": { "type": "Point", "coordinates": [ 20.4930592, 48.9798508 ] } },
{ "type": "Feature", "properties": { "level_0": 387, "index": 0, "checkins": 206.0, "city": "Smizany", "country": "Slovakia", "id": "149154128489338", "is_verified": false, "latitude": 48.958889399006999, "likes_n": 598.0, "located_in": null, "longitude": 20.520503741058, "name": "Penzion Spissky dvor, Slovensky raj a okolie - www.spisskydvor.sk", "rating_count": "32.0", "street": "Pajdusaka 16", "website": "www.spisskydvor.sk", "zip": "05311", "district_id": 810, "region_id": 8, "municipality_id": 560154, "district_name": "Spišská Nová Ves", "region_name": "Košický", "municipality_name": "Smižany", "src": "Facebook Places" }, "geometry": { "type": "Point", "coordinates": [ 20.520503741058, 48.958889399006999 ] } },
{ "type": "Feature", "properties": { "level_0": 108, "index": 0, "checkins": 6.0, "city": "Roznava", "country": "Slovakia", "id": "320228051408516", "is_verified": false, "latitude": 48.700657711022998, "likes_n": 8.0, "located_in": null, "longitude": 21.251701873059002, "name": "Gemerska Horka  - Anka Privat", "rating_count": "0.0", "street": null, "website": "NaN", "zip": "04912", "district_id": 805, "region_id": 8, "municipality_id": 599824, "district_name": "Košice IV", "region_name": "Košický", "municipality_name": "Košice-Juh", "src": "Facebook Places" }, "geometry": { "type": "Point", "coordinates": [ 21.251701873059002, 48.700657711022998 ] } },
{ "type": "Feature", "properties": { "level_0": 24, "index": 0, "checkins": 6124.0, "city": "Kosice", "country": "Slovakia", "id": "210098459009635", "is_verified": false, "latitude": 48.747334938519003, "likes_n": 7609.0, "located_in": null, "longitude": 21.208105833143001, "name": "Hotel Bankov Košice****", "rating_count": "300.0", "street": "Dolný Bankov 2", "website": "www.hotelbankov.sk", "zip": "040 01", "district_id": 802, "region_id": 8, "municipality_id": 598151, "district_name": "Košice I", "region_name": "Košický", "municipality_name": "Košice-Sever", "src": "Facebook Places" }, "geometry": { "type": "Point", "coordinates": [ 21.208105833143001, 48.747334938519003 ] } },
{ "type": "Feature", "properties": { "level_0": 28, "index": 0, "checkins": 38.0, "city": "Kosice", "country": "Slovakia", "id": "125346890977619", "is_verified": false, "latitude": 48.731334456669003, "likes_n": 5.0, "located_in": null, "longitude": 21.232545205590998, "name": "Penzión Rozália", "rating_count": "1.0", "street": "Oravska, 14", "website": "www.penzionrozalia.sk", "zip": "04001", "district_id": 802, "region_id": 8, "municipality_id": 598151, "district_name": "Košice I", "region_name": "Košický", "municipality_name": "Košice-Sever", "src": "Facebook Places" }, "geometry": { "type": "Point", "coordinates": [ 21.232545205590998, 48.731334456669003 ] } },
{ "type": "Feature", "properties": { "level_0": 32, "index": 0, "checkins": 65.0, "city": "Kosice", "country": "Slovakia", "id": "191440114735364", "is_verified": false, "latitude": 48.745195897888998, "likes_n": 12.0, "located_in": null, "longitude": 21.24646961689, "name": "Inštitút vzdelávania veterinárnych lekárov", "rating_count": "0.0", "street": "Cesta pod hradovou 13/a", "website": "www.ivvl.sk", "zip": "040 01", "district_id": 802, "region_id": 8, "municipality_id": 598151, "district_name": "Košice I", "region_name": "Košický", "municipality_name": "Košice-Sever", "src": "Facebook Places" }, "geometry": { "type": "Point", "coordinates": [ 21.24646961689, 48.745195897888998 ] } },
{ "type": "Feature", "properties": { "level_0": 37, "index": 0, "checkins": 14.0, "city": "Kosice", "country": "Slovakia", "id": "200813217069260", "is_verified": false, "latitude": 48.72824, "likes_n": 96.0, "located_in": null, "longitude": 21.2550199, "name": "Hostel Tabačka", "rating_count": "1.0", "street": "Strojárenská 3", "website": "NaN", "zip": "04001", "district_id": 802, "region_id": 8, "municipality_id": 598186, "district_name": "Košice I", "region_name": "Košický", "municipality_name": "Košice-Staré Mesto", "src": "Facebook Places" }, "geometry": { "type": "Point", "coordinates": [ 21.2550199, 48.72824 ] } },
{ "type": "Feature", "properties": { "level_0": 39, "index": 0, "checkins": 8.0, "city": "Kosice", "country": "Slovakia", "id": "762788417159678", "is_verified": false, "latitude": 48.7187, "likes_n": 26.0, "located_in": null, "longitude": 21.25611, "name": "Hostel Happy Bull in Kosice", "rating_count": "NaN", "street": "Vratna 30", "website": "http://hostel-kosice.com", "zip": "04001", "district_id": 802, "region_id": 8, "municipality_id": 598186, "district_name": "Košice I", "region_name": "Košický", "municipality_name": "Košice-Staré Mesto", "src": "Facebook Places" }, "geometry": { "type": "Point", "coordinates": [ 21.25611, 48.7187 ] } },
{ "type": "Feature", "properties": { "level_0": 40, "index": 0, "checkins": 0.0, "city": "Kosice", "country": "Slovakia", "id": "329635680781780", "is_verified": false, "latitude": 48.72375, "likes_n": 16.0, "located_in": null, "longitude": 21.25413, "name": "Design City Apartments", "rating_count": "0.0", "street": null, "website": "NaN", "zip": "040 01", "district_id": 802, "region_id": 8, "municipality_id": 598186, "district_name": "Košice I", "region_name": "Košický", "municipality_name": "Košice-Staré Mesto", "src": "Facebook Places" }, "geometry": { "type": "Point", "coordinates": [ 21.25413, 48.72375 ] } },
{ "type": "Feature", "properties": { "level_0": 132, "index": 0, "checkins": 12.0, "city": "Kosice", "country": "Slovakia", "id": "273534182987173", "is_verified": false, "latitude": 48.71815, "likes_n": 137.0, "located_in": null, "longitude": 21.25381, "name": "Hotel TeleDom", "rating_count": "2.0", "street": "Timonova 27", "website": "http://hotelteledom.sk", "zip": "040 01", "district_id": 802, "region_id": 8, "municipality_id": 598186, "district_name": "Košice I", "region_name": "Košický", "municipality_name": "Košice-Staré Mesto", "src": "Facebook Places" }, "geometry": { "type": "Point", "coordinates": [ 21.25381, 48.71815 ] } },
{ "type": "Feature", "properties": { "level_0": 150, "index": 0, "checkins": 178.0, "city": "Medzev", "country": "Slovakia", "id": "1491761757580701", "is_verified": false, "latitude": 48.6754, "likes_n": 1577.0, "located_in": null, "longitude": 20.87661, "name": "Ranč Šugov", "rating_count": "12.0", "street": "Šugovská dolina 7", "website": "www.rancsugov.sk", "zip": "04425", "district_id": 806, "region_id": 8, "municipality_id": 521671, "district_name": "Košice - okolie", "region_name": "Košický", "municipality_name": "Medzev", "src": "Facebook Places" }, "geometry": { "type": "Point", "coordinates": [ 20.87661, 48.6754 ] } },
{ "type": "Feature", "properties": { "level_0": 155, "index": 0, "checkins": 0.0, "city": "Poproc", "country": "Slovakia", "id": "857651111270301", "is_verified": false, "latitude": 48.71363, "likes_n": 0.0, "located_in": null, "longitude": 20.97506, "name": "Pálenica Poproč", "rating_count": "0.0", "street": "89 Kostolná", "website": "http://www.palenicapoproc.webnode.sk", "zip": "044 24", "district_id": 806, "region_id": 8, "municipality_id": 521892, "district_name": "Košice - okolie", "region_name": "Košický", "municipality_name": "Poproč", "src": "Facebook Places" }, "geometry": { "type": "Point", "coordinates": [ 20.97506, 48.71363 ] } },
{ "type": "Feature", "properties": { "level_0": 179, "index": 0, "checkins": 1561.0, "city": "Kosice", "country": "Slovakia", "id": "221541958183272", "is_verified": false, "latitude": 48.763846219389002, "likes_n": 2189.0, "located_in": null, "longitude": 21.078924589010001, "name": "Horská chata Lajoška", "rating_count": "68.0", "street": "Predná holica  908 m.n.m.", "website": "http://www.lajoska.sk", "zip": "04412", "district_id": 806, "region_id": 8, "municipality_id": 522210, "district_name": "Košice - okolie", "region_name": "Košický", "municipality_name": "Vyšný Klátov", "src": "Facebook Places" }, "geometry": { "type": "Point", "coordinates": [ 21.078924589010001, 48.763846219389002 ] } },
{ "type": "Feature", "properties": { "level_0": 185, "index": 0, "checkins": 371.0, "city": "Kosicka Bela", "country": "Slovakia", "id": "180275812020043", "is_verified": false, "latitude": 48.78569131, "likes_n": 32.0, "located_in": null, "longitude": 21.128194411, "name": "Hotel Dam, Kosicka Bela", "rating_count": "16.0", "street": null, "website": "www.hoteldam.sk", "zip": null, "district_id": 806, "region_id": 8, "municipality_id": 521574, "district_name": "Košice - okolie", "region_name": "Košický", "municipality_name": "Košická Belá", "src": "Facebook Places" }, "geometry": { "type": "Point", "coordinates": [ 21.128194411, 48.78569131 ] } },
{ "type": "Feature", "properties": { "level_0": 186, "index": 0, "checkins": 783.0, "city": "Kosice", "country": "Slovakia", "id": "103543179743537", "is_verified": false, "latitude": 48.763867127780003, "likes_n": 206.0, "located_in": null, "longitude": 21.078817439464, "name": "Chata Lajoska", "rating_count": "13.0", "street": null, "website": "http://www.lajoska.sk", "zip": null, "district_id": 806, "region_id": 8, "municipality_id": 522210, "district_name": "Košice - okolie", "region_name": "Košický", "municipality_name": "Vyšný Klátov", "src": "Facebook Places" }, "geometry": { "type": "Point", "coordinates": [ 21.078817439464, 48.763867127780003 ] } },
{ "type": "Feature", "properties": { "level_0": 192, "index": 0, "checkins": 7.0, "city": "Kosicka Bela", "country": "Slovakia", "id": "685834048514531", "is_verified": false, "latitude": 48.83013, "likes_n": 0.0, "located_in": null, "longitude": 21.08085, "name": "Chata Termostav Mráz", "rating_count": "0.0", "street": "Košické Hámre", "website": "NaN", "zip": "044 65", "district_id": 806, "region_id": 8, "municipality_id": 521574, "district_name": "Košice - okolie", "region_name": "Košický", "municipality_name": "Košická Belá", "src": "Facebook Places" }, "geometry": { "type": "Point", "coordinates": [ 21.08085, 48.83013 ] } },
{ "type": "Feature", "properties": { "level_0": 240, "index": 0, "checkins": 217.0, "city": "Strazske", "country": "Slovakia", "id": "474206009436359", "is_verified": false, "latitude": 48.88233, "likes_n": 991.0, "located_in": null, "longitude": 21.84831, "name": "Penzión VÁŽKA", "rating_count": "84.0", "street": "Krivostanska 517", "website": "http://www.penzion-vazka.sk/", "zip": "072 22", "district_id": 807, "region_id": 8, "municipality_id": 523101, "district_name": "Michalovce", "region_name": "Košický", "municipality_name": "Strážske", "src": "Facebook Places" }, "geometry": { "type": "Point", "coordinates": [ 21.84831, 48.88233 ] } },
{ "type": "Feature", "properties": { "level_0": 88, "index": 0, "checkins": 28.0, "city": "Dedinky", "country": "Slovakia", "id": "2178366595807727", "is_verified": false, "latitude": 48.85837, "likes_n": 64.0, "located_in": null, "longitude": 20.37355, "name": "Chata Aqualand DL", "rating_count": "2.0", "street": "Dobšinská Maša 69", "website": "http://chatadl.aqualand.sk/", "zip": "04973", "district_id": 808, "region_id": 8, "municipality_id": 525618, "district_name": "Rožňava", "region_name": "Košický", "municipality_name": "Dedinky", "src": "Facebook Places" }, "geometry": { "type": "Point", "coordinates": [ 20.37355, 48.85837 ] } },
{ "type": "Feature", "properties": { "level_0": 108, "index": 0, "checkins": 72.0, "city": "Dlhá Ves", "country": "Slovakia", "id": "910348065679910", "is_verified": false, "latitude": 48.4953308, "likes_n": 1351.0, "located_in": null, "longitude": 20.4391308, "name": "Ubytovanie a Wellness Sárika", "rating_count": "33.0", "street": "Malá 146", "website": "NaN", "zip": "049 55", "district_id": 808, "region_id": 8, "municipality_id": 525626, "district_name": "Rožňava", "region_name": "Košický", "municipality_name": "Dlhá Ves", "src": "Facebook Places" }, "geometry": { "type": "Point", "coordinates": [ 20.4391308, 48.4953308 ] } },
{ "type": "Feature", "properties": { "level_0": 111, "index": 0, "checkins": 3.0, "city": "Dlhá Ves", "country": "Slovakia", "id": "464972437375508", "is_verified": false, "latitude": 48.492619100055997, "likes_n": 87.0, "located_in": null, "longitude": 20.439215599887, "name": "ApartmentKaf", "rating_count": "0.0", "street": "Hlavá 78", "website": "https://apartmentkaf.webnode.sk/", "zip": "04955", "district_id": 808, "region_id": 8, "municipality_id": 525626, "district_name": "Rožňava", "region_name": "Košický", "municipality_name": "Dlhá Ves", "src": "Facebook Places" }, "geometry": { "type": "Point", "coordinates": [ 20.439215599887, 48.492619100055997 ] } },
{ "type": "Feature", "properties": { "level_0": 118, "index": 0, "checkins": 62.0, "city": "Betliar", "country": "Slovakia", "id": "431344000343150", "is_verified": false, "latitude": 48.70086, "likes_n": 546.0, "located_in": null, "longitude": 20.50749, "name": "Ubytovanie Galleria Betliar", "rating_count": "16.0", "street": "Mierová 359", "website": "http://www.booking.com/hotel/sk/galleria-betliar.html?label=gen173nr-1FCAEoggJCAlhYSDNiBW5vcmVmaM0BiAECmAExuAEHyAEN2AEB6AEB", "zip": "049 21", "district_id": 808, "region_id": 8, "municipality_id": 525545, "district_name": "Rožňava", "region_name": "Košický", "municipality_name": "Betliar", "src": "Facebook Places" }, "geometry": { "type": "Point", "coordinates": [ 20.50749, 48.70086 ] } },
{ "type": "Feature", "properties": { "level_0": 128, "index": 0, "checkins": 20.0, "city": "Vlachovo", "country": "Slovakia", "id": "687157044669616", "is_verified": false, "latitude": 48.774120988009003, "likes_n": 160.0, "located_in": null, "longitude": 20.410414847999, "name": "Motel pod Stromíšom", "rating_count": "1.0", "street": null, "website": "http://www.ubytovanievlachovo.sk", "zip": "04924", "district_id": 808, "region_id": 8, "municipality_id": 526339, "district_name": "Rožňava", "region_name": "Košický", "municipality_name": "Vlachovo", "src": "Facebook Places" }, "geometry": { "type": "Point", "coordinates": [ 20.410414847999, 48.774120988009003 ] } },
{ "type": "Feature", "properties": { "level_0": 328, "index": 0, "checkins": 35.0, "city": "Kaluza", "country": "Slovakia", "id": "1270139316441380", "is_verified": false, "latitude": 48.8028541, "likes_n": 50.0, "located_in": null, "longitude": 21.9969646, "name": "Zelená chata Zemplínska Šírava", "rating_count": "7.0", "street": "Zemplínska Šírava", "website": "http://zelenachata.sk/", "zip": "07236", "district_id": 807, "region_id": 8, "municipality_id": 523259, "district_name": "Michalovce", "region_name": "Košický", "municipality_name": "Vinné", "src": "Facebook Places" }, "geometry": { "type": "Point", "coordinates": [ 21.9969646, 48.8028541 ] } },
{ "type": "Feature", "properties": { "level_0": 81, "index": 0, "checkins": 1367.0, "city": "Malá Ida", "country": "Slovakia", "id": "253483248025137", "is_verified": false, "latitude": 48.676603030011997, "likes_n": 383.0, "located_in": null, "longitude": 21.170555883839, "name": "Slamený Dom", "rating_count": "38.0", "street": "Smrekova 2, Mala Ida", "website": "NaN", "zip": "04420", "district_id": 806, "region_id": 8, "municipality_id": 521655, "district_name": "Košice - okolie", "region_name": "Košický", "municipality_name": "Malá Ida", "src": "Facebook Places" }, "geometry": { "type": "Point", "coordinates": [ 21.170555883839, 48.676603030011997 ] } },
{ "type": "Feature", "properties": { "level_0": 64, "index": 0, "checkins": 3.0, "city": "Dedinky", "country": "Slovakia", "id": "611079732364136", "is_verified": false, "latitude": 48.85761, "likes_n": 52.0, "located_in": null, "longitude": 20.36667, "name": "Rekreačný domček Jarka", "rating_count": "1.0", "street": "Dobšinská Maša 43", "website": "http://ubytovanie.kamsi.sk/jarka-dedinky-dobsinska-masa/detail/9849", "zip": "04973", "district_id": 808, "region_id": 8, "municipality_id": 525618, "district_name": "Rožňava", "region_name": "Košický", "municipality_name": "Dedinky", "src": "Facebook Places" }, "geometry": { "type": "Point", "coordinates": [ 20.36667, 48.85761 ] } },
{ "type": "Feature", "properties": { "level_0": 96, "index": 0, "checkins": 132.0, "city": "Dobsina", "country": "Slovakia", "id": "10151541874111659", "is_verified": false, "latitude": 48.82327116, "likes_n": 472.0, "located_in": null, "longitude": 20.35161288, "name": "CHATA NA SLNEČNOM KOPCI", "rating_count": "16.0", "street": "ulica Slnečná 402", "website": "http://www.cestazmesta.sk", "zip": "04925", "district_id": 808, "region_id": 8, "municipality_id": 525634, "district_name": "Rožňava", "region_name": "Košický", "municipality_name": "Dobšiná", "src": "Facebook Places" }, "geometry": { "type": "Point", "coordinates": [ 20.35161288, 48.82327116 ] } },
{ "type": "Feature", "properties": { "level_0": 69, "index": 0, "checkins": 27.0, "city": "Dobsina", "country": "Slovakia", "id": "233912727530311", "is_verified": false, "latitude": 48.8365099, "likes_n": 219.0, "located_in": null, "longitude": 20.33738, "name": "Horská chata Stará Horáreň", "rating_count": "0.0", "street": "Lányiho Huta 1093", "website": "www.starahoraren.sk", "zip": null, "district_id": 808, "region_id": 8, "municipality_id": 525634, "district_name": "Rožňava", "region_name": "Košický", "municipality_name": "Dobšiná", "src": "Facebook Places" }, "geometry": { "type": "Point", "coordinates": [ 20.33738, 48.8365099 ] } },
{ "type": "Feature", "properties": { "level_0": 74, "index": 0, "checkins": 343.0, "city": "Mlynky a Havrania Dolina", "country": "Slovakia", "id": "358189111002470", "is_verified": false, "latitude": 48.853400937456001, "likes_n": 5328.0, "located_in": null, "longitude": 20.387247507674999, "name": "Penzión Salamander", "rating_count": "38.0", "street": "Palcmanská Maša 293", "website": "http://www.penzion-salamander.sk", "zip": "05376", "district_id": 810, "region_id": 8, "municipality_id": 543357, "district_name": "Spišská Nová Ves", "region_name": "Košický", "municipality_name": "Mlynky", "src": "Facebook Places" }, "geometry": { "type": "Point", "coordinates": [ 20.387247507674999, 48.853400937456001 ] } },
{ "type": "Feature", "properties": { "level_0": 81, "index": 0, "checkins": 325.0, "city": "Dedinky", "country": "Slovakia", "id": "182771278527880", "is_verified": false, "latitude": 48.8586436, "likes_n": 3084.0, "located_in": null, "longitude": 20.3721335, "name": "Hotel Raj", "rating_count": "32.0", "street": "Dobšinská Maša 73", "website": "http://www.hotelraj.sk", "zip": "049 73", "district_id": 808, "region_id": 8, "municipality_id": 525618, "district_name": "Rožňava", "region_name": "Košický", "municipality_name": "Dedinky", "src": "Facebook Places" }, "geometry": { "type": "Point", "coordinates": [ 20.3721335, 48.8586436 ] } },
{ "type": "Feature", "properties": { "level_0": 85, "index": 0, "checkins": 1.0, "city": "Dedinky", "country": "Slovakia", "id": "1863015613920759", "is_verified": false, "latitude": 48.853549837753, "likes_n": 0.0, "located_in": null, "longitude": 20.387198564805999, "name": "Mlynky Penzion Salamander", "rating_count": "0.0", "street": null, "website": "NaN", "zip": null, "district_id": 810, "region_id": 8, "municipality_id": 543357, "district_name": "Spišská Nová Ves", "region_name": "Košický", "municipality_name": "Mlynky", "src": "Facebook Places" }, "geometry": { "type": "Point", "coordinates": [ 20.387198564805999, 48.853549837753 ] } },
{ "type": "Feature", "properties": { "level_0": 87, "index": 0, "checkins": 88.0, "city": "Dedinky", "country": "Slovakia", "id": "170301417070787", "is_verified": false, "latitude": 48.85858, "likes_n": 33.0, "located_in": null, "longitude": 20.37119, "name": "Chata Raj Dedinky", "rating_count": "2.0", "street": "Dobšinská Maša 38", "website": "www.chata-raj-dedinky.sk", "zip": null, "district_id": 808, "region_id": 8, "municipality_id": 525618, "district_name": "Rožňava", "region_name": "Košický", "municipality_name": "Dedinky", "src": "Facebook Places" }, "geometry": { "type": "Point", "coordinates": [ 20.37119, 48.85858 ] } },
{ "type": "Feature", "properties": { "level_0": 388, "index": 0, "checkins": 38.0, "city": "Smizany", "country": "Slovakia", "id": "119249414823914", "is_verified": false, "latitude": 48.95868, "likes_n": 81.0, "located_in": null, "longitude": 20.52032, "name": "Penzion Spissky dvor, Slovensky raj", "rating_count": "14.0", "street": "nám.Pajdušáka 12", "website": "www.spisskydvor.sk ", "zip": "05311", "district_id": 810, "region_id": 8, "municipality_id": 560154, "district_name": "Spišská Nová Ves", "region_name": "Košický", "municipality_name": "Smižany", "src": "Facebook Places" }, "geometry": { "type": "Point", "coordinates": [ 20.52032, 48.95868 ] } },
{ "type": "Feature", "properties": { "level_0": 389, "index": 0, "checkins": 474.0, "city": "Smizany", "country": "Slovakia", "id": "981758748512335", "is_verified": false, "latitude": 48.957672872897, "likes_n": 788.0, "located_in": null, "longitude": 20.528086294270999, "name": "Ubytovanie Zuzana Slovensky raj", "rating_count": "27.0", "street": "komenskeho 14", "website": "http://www.uzuzana.szm.com", "zip": "05311", "district_id": 810, "region_id": 8, "municipality_id": 560154, "district_name": "Spišská Nová Ves", "region_name": "Košický", "municipality_name": "Smižany", "src": "Facebook Places" }, "geometry": { "type": "Point", "coordinates": [ 20.528086294270999, 48.957672872897 ] } },
{ "type": "Feature", "properties": { "level_0": 390, "index": 0, "checkins": 2466.0, "city": "Smizany", "country": "Slovakia", "id": "640234755998944", "is_verified": false, "latitude": 48.948086468025998, "likes_n": 1507.0, "located_in": null, "longitude": 20.490163182, "name": "Wellness & Kongres Hotel Čingov Slovenský raj", "rating_count": "96.0", "street": "Čingov 1090", "website": "www.hotelcingov.sk www.kongreshotel.eu www.teambuildinghotel.eu", "zip": "05311", "district_id": 810, "region_id": 8, "municipality_id": 543586, "district_name": "Spišská Nová Ves", "region_name": "Košický", "municipality_name": "Spišské Tomášovce", "src": "Facebook Places" }, "geometry": { "type": "Point", "coordinates": [ 20.490163182, 48.948086468025998 ] } },
{ "type": "Feature", "properties": { "level_0": 391, "index": 0, "checkins": 1639.0, "city": "Smizany", "country": "Slovakia", "id": "247929045233476", "is_verified": false, "latitude": 48.94805318, "likes_n": 289.0, "located_in": null, "longitude": 20.49015319, "name": "Wellness & Congress Hotel Čingov", "rating_count": "64.0", "street": "Čingov - Hradisko", "website": "http://www.hotelcingov.sk", "zip": "05311", "district_id": 810, "region_id": 8, "municipality_id": 543586, "district_name": "Spišská Nová Ves", "region_name": "Košický", "municipality_name": "Spišské Tomášovce", "src": "Facebook Places" }, "geometry": { "type": "Point", "coordinates": [ 20.49015319, 48.94805318 ] } },
{ "type": "Feature", "properties": { "level_0": 405, "index": 0, "checkins": 38.0, "city": "Spisske Tomasovce", "country": "Slovakia", "id": "463874604438926", "is_verified": false, "latitude": 48.944716644564998, "likes_n": 0.0, "located_in": null, "longitude": 20.485526202742001, "name": "Penzión Lesnica", "rating_count": "0.0", "street": "Čingov 133", "website": "NaN", "zip": "052 01", "district_id": 810, "region_id": 8, "municipality_id": 543586, "district_name": "Spišská Nová Ves", "region_name": "Košický", "municipality_name": "Spišské Tomášovce", "src": "Facebook Places" }, "geometry": { "type": "Point", "coordinates": [ 20.485526202742001, 48.944716644564998 ] } },
{ "type": "Feature", "properties": { "level_0": 147, "index": 0, "checkins": 4.0, "city": "Roznava", "country": "Slovakia", "id": "1542901662465053", "is_verified": false, "latitude": 48.678833997010003, "likes_n": 99.0, "located_in": null, "longitude": 20.542877912521, "name": "Villa ELENA", "rating_count": "0.0", "street": "Čučmianská dlhá 76", "website": "NaN", "zip": "04801", "district_id": 808, "region_id": 8, "municipality_id": 525529, "district_name": "Rožňava", "region_name": "Košický", "municipality_name": "Rožňava", "src": "Facebook Places" }, "geometry": { "type": "Point", "coordinates": [ 20.542877912521, 48.678833997010003 ] } },
{ "type": "Feature", "properties": { "level_0": 151, "index": 0, "checkins": 51.0, "city": "Roznava", "country": "Slovakia", "id": "1643650835887104", "is_verified": false, "latitude": 48.66073, "likes_n": 69.0, "located_in": null, "longitude": 20.52342, "name": "Garni Hotel GEMER", "rating_count": "1.0", "street": "Štítnická 2040/62", "website": "http://www.hotelgemer.sk", "zip": "04801", "district_id": 808, "region_id": 8, "municipality_id": 525529, "district_name": "Rožňava", "region_name": "Košický", "municipality_name": "Rožňava", "src": "Facebook Places" }, "geometry": { "type": "Point", "coordinates": [ 20.52342, 48.66073 ] } },
{ "type": "Feature", "properties": { "level_0": 153, "index": 0, "checkins": 269.0, "city": "Roznava", "country": "Slovakia", "id": "1065056500227088", "is_verified": false, "latitude": 48.6598892, "likes_n": 355.0, "located_in": null, "longitude": 20.5319405, "name": "Hotel Empress", "rating_count": "3.0", "street": "Košická 1", "website": "http://www.hotelempress.sk", "zip": "04801", "district_id": 808, "region_id": 8, "municipality_id": 525529, "district_name": "Rožňava", "region_name": "Košický", "municipality_name": "Rožňava", "src": "Facebook Places" }, "geometry": { "type": "Point", "coordinates": [ 20.5319405, 48.6598892 ] } },
{ "type": "Feature", "properties": { "level_0": 157, "index": 0, "checkins": 21.0, "city": "Roznava", "country": "Slovakia", "id": "2227958274137412", "is_verified": false, "latitude": 48.6604725, "likes_n": 1181.0, "located_in": null, "longitude": 20.5289528, "name": "Villa Angel", "rating_count": "NaN", "street": "Janka Krála 2", "website": "www.villaangel.sk", "zip": "048 01", "district_id": 808, "region_id": 8, "municipality_id": 525529, "district_name": "Rožňava", "region_name": "Košický", "municipality_name": "Rožňava", "src": "Facebook Places" }, "geometry": { "type": "Point", "coordinates": [ 20.5289528, 48.6604725 ] } },
{ "type": "Feature", "properties": { "level_0": 158, "index": 0, "checkins": 1.0, "city": "Roznava", "country": "Slovakia", "id": "2176166099313066", "is_verified": false, "latitude": 48.660120669607998, "likes_n": 1.0, "located_in": null, "longitude": 20.527027703169001, "name": "Zamma pension", "rating_count": "0.0", "street": null, "website": "NaN", "zip": null, "district_id": 808, "region_id": 8, "municipality_id": 525529, "district_name": "Rožňava", "region_name": "Košický", "municipality_name": "Rožňava", "src": "Facebook Places" }, "geometry": { "type": "Point", "coordinates": [ 20.527027703169001, 48.660120669607998 ] } },
{ "type": "Feature", "properties": { "level_0": 90, "index": 0, "checkins": 120.0, "city": "Mlynky a Havrania Dolina", "country": "Slovakia", "id": "857188474370867", "is_verified": false, "latitude": 48.85268, "likes_n": 2168.0, "located_in": null, "longitude": 20.40644, "name": "Penzión Pod Guglom", "rating_count": "16.0", "street": "Prostredný Hámor389", "website": "http://www.mlynky.net/", "zip": "05376", "district_id": 810, "region_id": 8, "municipality_id": 543357, "district_name": "Spišská Nová Ves", "region_name": "Košický", "municipality_name": "Mlynky", "src": "Facebook Places" }, "geometry": { "type": "Point", "coordinates": [ 20.40644, 48.85268 ] } },
{ "type": "Feature", "properties": { "level_0": 91, "index": 0, "checkins": 2.0, "city": "Dedinky", "country": "Slovakia", "id": "668909930234729", "is_verified": false, "latitude": 48.85793, "likes_n": 172.0, "located_in": null, "longitude": 20.36858, "name": "Domček u Ferka", "rating_count": "2.0", "street": "Dobšinská Maša 46", "website": "https://www.megaubytovanie.sk/domcek-u-ferka", "zip": "04973", "district_id": 808, "region_id": 8, "municipality_id": 525618, "district_name": "Rožňava", "region_name": "Košický", "municipality_name": "Dedinky", "src": "Facebook Places" }, "geometry": { "type": "Point", "coordinates": [ 20.36858, 48.85793 ] } },
{ "type": "Feature", "properties": { "level_0": 167, "index": 0, "checkins": 35.0, "city": "Betliar", "country": "Slovakia", "id": "115485129846539", "is_verified": false, "latitude": 48.70126, "likes_n": 537.0, "located_in": null, "longitude": 20.50588, "name": "Barónka Bed&Breakfast&Bistrot", "rating_count": "16.0", "street": "Námestie J. Pavlíka 199", "website": "NaN", "zip": "049 21", "district_id": 808, "region_id": 8, "municipality_id": 525545, "district_name": "Rožňava", "region_name": "Košický", "municipality_name": "Betliar", "src": "Facebook Places" }, "geometry": { "type": "Point", "coordinates": [ 20.50588, 48.70126 ] } },
{ "type": "Feature", "properties": { "level_0": 168, "index": 0, "checkins": 18.0, "city": "Betliar", "country": "Slovakia", "id": "200169796809079", "is_verified": false, "latitude": 48.7026111435, "likes_n": 2.0, "located_in": null, "longitude": 20.499860895000001, "name": "Betliar Penzion Tenis", "rating_count": "0.0", "street": "Polomská", "website": "NaN", "zip": "04921", "district_id": 808, "region_id": 8, "municipality_id": 525545, "district_name": "Rožňava", "region_name": "Košický", "municipality_name": "Betliar", "src": "Facebook Places" }, "geometry": { "type": "Point", "coordinates": [ 20.499860895, 48.7026111435 ] } },
{ "type": "Feature", "properties": { "level_0": 172, "index": 0, "checkins": 21.0, "city": "Krásnohorská Dlhá Lúka", "country": "Slovakia", "id": "1464517893792506", "is_verified": false, "latitude": 48.623828405422003, "likes_n": 113.0, "located_in": null, "longitude": 20.576357245444999, "name": "Penzión Adriana- Panzió Adriana", "rating_count": "13.0", "street": "101", "website": "http://www.penzion-adriana.sk/", "zip": "04945", "district_id": 808, "region_id": 8, "municipality_id": 525863, "district_name": "Rožňava", "region_name": "Košický", "municipality_name": "Krásnohorská Dlhá Lúka", "src": "Facebook Places" }, "geometry": { "type": "Point", "coordinates": [ 20.576357245444999, 48.623828405422003 ] } },
{ "type": "Feature", "properties": { "level_0": 173, "index": 0, "checkins": 10.0, "city": "Krásnohorská Dlhá Lúka", "country": "Slovakia", "id": "584670694906867", "is_verified": false, "latitude": 48.626638513000003, "likes_n": 20.0, "located_in": null, "longitude": 20.581320727007999, "name": "Ubytovanie Zuzka", "rating_count": "0.0", "street": "181", "website": "www.zuzkapenzion.sk", "zip": "04945", "district_id": 808, "region_id": 8, "municipality_id": 525863, "district_name": "Rožňava", "region_name": "Košický", "municipality_name": "Krásnohorská Dlhá Lúka", "src": "Facebook Places" }, "geometry": { "type": "Point", "coordinates": [ 20.581320727007999, 48.626638513 ] } },
{ "type": "Feature", "properties": { "level_0": 188, "index": 0, "checkins": 16.0, "city": "Krásnohorské Podhradie", "country": "Slovakia", "id": "406383366076251", "is_verified": false, "latitude": 48.6469211, "likes_n": 739.0, "located_in": null, "longitude": 20.5976076, "name": "UBYTOVANIE ŽANETA", "rating_count": "NaN", "street": "Tichá 411", "website": "www.ubytovaniezaneta.sk", "zip": "04941", "district_id": 808, "region_id": 8, "municipality_id": 525871, "district_name": "Rožňava", "region_name": "Košický", "municipality_name": "Krásnohorské Podhradie", "src": "Facebook Places" }, "geometry": { "type": "Point", "coordinates": [ 20.5976076, 48.6469211 ] } },
{ "type": "Feature", "properties": { "level_0": 191, "index": 0, "checkins": 32.0, "city": "Roznava", "country": "Slovakia", "id": "324794694273188", "is_verified": false, "latitude": 48.659812066980997, "likes_n": 29.0, "located_in": null, "longitude": 20.531833193179999, "name": "Boutique Hotel **** Empress", "rating_count": "3.0", "street": "Košická 1", "website": "http://hotelempress.sk/domov/", "zip": "04801", "district_id": 808, "region_id": 8, "municipality_id": 525529, "district_name": "Rožňava", "region_name": "Košický", "municipality_name": "Rožňava", "src": "Facebook Places" }, "geometry": { "type": "Point", "coordinates": [ 20.531833193179999, 48.659812066980997 ] } },
{ "type": "Feature", "properties": { "level_0": 190, "index": 0, "checkins": 41.0, "city": "Roznava", "country": "Slovakia", "id": "234360196669182", "is_verified": false, "latitude": 48.661129266023003, "likes_n": 82.0, "located_in": null, "longitude": 20.531965780773, "name": "Penzion Rosenau", "rating_count": "2.0", "street": "Šafárikova 4", "website": "http://www.rosenau.sk", "zip": "04801", "district_id": 808, "region_id": 8, "municipality_id": 525529, "district_name": "Rožňava", "region_name": "Košický", "municipality_name": "Rožňava", "src": "Facebook Places" }, "geometry": { "type": "Point", "coordinates": [ 20.531965780773, 48.661129266023003 ] } },
{ "type": "Feature", "properties": { "level_0": 415, "index": 0, "checkins": 2.0, "city": "Hnilcik", "country": "Slovakia", "id": "1744954182280511", "is_verified": false, "latitude": 48.855949695733997, "likes_n": 1.0, "located_in": null, "longitude": 20.568068945876, "name": "drevenica Amulet", "rating_count": "0.0", "street": "Hnilčík 261", "website": "NaN", "zip": "053 32", "district_id": 810, "region_id": 8, "municipality_id": 526576, "district_name": "Spišská Nová Ves", "region_name": "Košický", "municipality_name": "Hnilčík", "src": "Facebook Places" }, "geometry": { "type": "Point", "coordinates": [ 20.568068945876, 48.855949695733997 ] } },
{ "type": "Feature", "properties": { "level_0": 275, "index": 0, "checkins": 3.0, "city": "Hrabusice", "country": "Slovakia", "id": "292848458177091", "is_verified": false, "latitude": 48.945687377864999, "likes_n": 87.0, "located_in": null, "longitude": 20.347924232482999, "name": "Chata Píla", "rating_count": "1.0", "street": "Hrabusicka Pila", "website": "NaN", "zip": "05315", "district_id": 810, "region_id": 8, "municipality_id": 526592, "district_name": "Spišská Nová Ves", "region_name": "Košický", "municipality_name": "Hrabušice", "src": "Facebook Places" }, "geometry": { "type": "Point", "coordinates": [ 20.347924232482999, 48.945687377864999 ] } },
{ "type": "Feature", "properties": { "level_0": 276, "index": 0, "checkins": 3.0, "city": "Hranovnica", "country": "Slovakia", "id": "1051409068329349", "is_verified": false, "latitude": 48.945104969185998, "likes_n": 1.0, "located_in": null, "longitude": 20.347573510314, "name": "Chata Piecky", "rating_count": "0.0", "street": "Pila", "website": "NaN", "zip": null, "district_id": 810, "region_id": 8, "municipality_id": 526592, "district_name": "Spišská Nová Ves", "region_name": "Košický", "municipality_name": "Hrabušice", "src": "Facebook Places" }, "geometry": { "type": "Point", "coordinates": [ 20.347573510314, 48.945104969185998 ] } },
{ "type": "Feature", "properties": { "level_0": 317, "index": 0, "checkins": 9.0, "city": "Hrabusice", "country": "Slovakia", "id": "661006520613594", "is_verified": false, "latitude": 48.97616, "likes_n": 39.0, "located_in": null, "longitude": 20.41539, "name": "Penzion Siesta Grand", "rating_count": "3.0", "street": "Obchodna 55", "website": "NaN", "zip": "053 15", "district_id": 810, "region_id": 8, "municipality_id": 526592, "district_name": "Spišská Nová Ves", "region_name": "Košický", "municipality_name": "Hrabušice", "src": "Facebook Places" }, "geometry": { "type": "Point", "coordinates": [ 20.41539, 48.97616 ] } },
{ "type": "Feature", "properties": { "level_0": 318, "index": 0, "checkins": 1.0, "city": "Hrabusice", "country": "Slovakia", "id": "240885326580970", "is_verified": false, "latitude": 48.974379202622004, "likes_n": 0.0, "located_in": null, "longitude": 20.413734912871998, "name": "Gazdovsky Dvor", "rating_count": "0.0", "street": "Hviezdoslavova 3", "website": "NaN", "zip": null, "district_id": 810, "region_id": 8, "municipality_id": 526592, "district_name": "Spišská Nová Ves", "region_name": "Košický", "municipality_name": "Hrabušice", "src": "Facebook Places" }, "geometry": { "type": "Point", "coordinates": [ 20.413734912871998, 48.974379202622004 ] } },
{ "type": "Feature", "properties": { "level_0": 319, "index": 0, "checkins": 3.0, "city": "Hrabusice", "country": "Slovakia", "id": "271536330156622", "is_verified": false, "latitude": 48.97662, "likes_n": 0.0, "located_in": null, "longitude": 20.41443, "name": "Drevený Raj", "rating_count": "0.0", "street": "Gaštanová 9", "website": "NaN", "zip": null, "district_id": 810, "region_id": 8, "municipality_id": 526592, "district_name": "Spišská Nová Ves", "region_name": "Košický", "municipality_name": "Hrabušice", "src": "Facebook Places" }, "geometry": { "type": "Point", "coordinates": [ 20.41443, 48.97662 ] } },
{ "type": "Feature", "properties": { "level_0": 320, "index": 0, "checkins": 0.0, "city": "Hrabusice", "country": "Slovakia", "id": "489070097788496", "is_verified": false, "latitude": 48.97288, "likes_n": 31.0, "located_in": null, "longitude": 20.40407, "name": "Chata Jedlička", "rating_count": "1.0", "street": "Hlavná 192", "website": "http://www.slovaktour.sk/", "zip": "05315", "district_id": 810, "region_id": 8, "municipality_id": 526592, "district_name": "Spišská Nová Ves", "region_name": "Košický", "municipality_name": "Hrabušice", "src": "Facebook Places" }, "geometry": { "type": "Point", "coordinates": [ 20.40407, 48.97288 ] } },
{ "type": "Feature", "properties": { "level_0": 322, "index": 0, "checkins": 2.0, "city": "Hrabusice", "country": "Slovakia", "id": "132690066893658", "is_verified": false, "latitude": 48.9796271, "likes_n": 12.0, "located_in": null, "longitude": 20.40525, "name": "Zelena Chalupka A Domček", "rating_count": "1.0", "street": "Slovenskeho raja 275", "website": "http://www.zelenachalupka.sk", "zip": "052 01", "district_id": 810, "region_id": 8, "municipality_id": 526592, "district_name": "Spišská Nová Ves", "region_name": "Košický", "municipality_name": "Hrabušice", "src": "Facebook Places" }, "geometry": { "type": "Point", "coordinates": [ 20.40525, 48.9796271 ] } },
{ "type": "Feature", "properties": { "level_0": 307, "index": 0, "checkins": 92.0, "city": "Hrabusice", "country": "Slovakia", "id": "457137487955967", "is_verified": false, "latitude": 48.973403674358003, "likes_n": 204.0, "located_in": null, "longitude": 20.395363472591999, "name": "Penzion Anton Slovenský Raj", "rating_count": "14.0", "street": "Hlavná 832", "website": "www.penzionanton.eu", "zip": "05315", "district_id": 810, "region_id": 8, "municipality_id": 526592, "district_name": "Spišská Nová Ves", "region_name": "Košický", "municipality_name": "Hrabušice", "src": "Facebook Places" }, "geometry": { "type": "Point", "coordinates": [ 20.395363472591999, 48.973403674358003 ] } },
{ "type": "Feature", "properties": { "level_0": 330, "index": 0, "checkins": 2.0, "city": "Betlanovce", "country": "Slovakia", "id": "612345305939705", "is_verified": false, "latitude": 48.9767, "likes_n": 482.0, "located_in": null, "longitude": 20.39221, "name": "Chalupa u Barborky Slovenský raj", "rating_count": "3.0", "street": "92", "website": "https://www.megaubytovanie.sk/chalupa-u-barborky", "zip": "05315", "district_id": 810, "region_id": 8, "municipality_id": 526592, "district_name": "Spišská Nová Ves", "region_name": "Košický", "municipality_name": "Hrabušice", "src": "Facebook Places" }, "geometry": { "type": "Point", "coordinates": [ 20.39221, 48.9767 ] } },
{ "type": "Feature", "properties": { "level_0": 517, "index": 0, "checkins": 115.0, "city": "Krompachy", "country": "Slovakia", "id": "130035140434694", "is_verified": false, "latitude": 48.90937, "likes_n": 138.0, "located_in": null, "longitude": 20.88126, "name": "Penzión Plejsy", "rating_count": "12.0", "street": "Sadová 14", "website": "www.penzionplejsy.sk", "zip": "05342", "district_id": 810, "region_id": 8, "municipality_id": 543268, "district_name": "Spišská Nová Ves", "region_name": "Košický", "municipality_name": "Krompachy", "src": "Facebook Places" }, "geometry": { "type": "Point", "coordinates": [ 20.88126, 48.90937 ] } },
{ "type": "Feature", "properties": { "level_0": 518, "index": 0, "checkins": 1.0, "city": "Slovinky", "country": "Slovakia", "id": "324086061121937", "is_verified": false, "latitude": 48.8833, "likes_n": 2.0, "located_in": null, "longitude": 20.85, "name": "Officiale la page Mimit", "rating_count": "0.0", "street": "bratislava", "website": "http://www.mimitresorttyou.ca", "zip": "23221", "district_id": 810, "region_id": 8, "municipality_id": 543535, "district_name": "Spišská Nová Ves", "region_name": "Košický", "municipality_name": "Slovinky", "src": "Facebook Places" }, "geometry": { "type": "Point", "coordinates": [ 20.85, 48.8833 ] } },
{ "type": "Feature", "properties": { "level_0": 519, "index": 0, "checkins": 45.0, "city": "Spisske Vlachy", "country": "Slovakia", "id": "655757711209042", "is_verified": false, "latitude": 48.927236434708, "likes_n": 113.0, "located_in": null, "longitude": 20.795263051987, "name": "Casa Blanca - Spišské Vlachy ubytovanie", "rating_count": "13.0", "street": null, "website": "NaN", "zip": "053 61", "district_id": 810, "region_id": 8, "municipality_id": 543594, "district_name": "Spišská Nová Ves", "region_name": "Košický", "municipality_name": "Spišské Vlachy", "src": "Facebook Places" }, "geometry": { "type": "Point", "coordinates": [ 20.795263051987, 48.927236434708 ] } },
{ "type": "Feature", "properties": { "level_0": 325, "index": 0, "checkins": 8.0, "city": "Hrabusice", "country": "Slovakia", "id": "583685768668167", "is_verified": false, "latitude": 48.97249, "likes_n": 12.0, "located_in": null, "longitude": 20.39979, "name": "Vila Tiesňava Slovenský raj", "rating_count": "2.0", "street": "Hlavná 997/203", "website": "https://tiesnava.sk/", "zip": "05315", "district_id": 810, "region_id": 8, "municipality_id": 526592, "district_name": "Spišská Nová Ves", "region_name": "Košický", "municipality_name": "Hrabušice", "src": "Facebook Places" }, "geometry": { "type": "Point", "coordinates": [ 20.39979, 48.97249 ] } },
{ "type": "Feature", "properties": { "level_0": 357, "index": 0, "checkins": 0.0, "city": "Smizany", "country": "Slovakia", "id": "107995930692601", "is_verified": false, "latitude": 48.9472, "likes_n": 0.0, "located_in": null, "longitude": 20.5043599, "name": "Villa LUPU", "rating_count": "0.0", "street": "Maša 1345/59", "website": "NaN", "zip": "05311", "district_id": 810, "region_id": 8, "municipality_id": 560154, "district_name": "Spišská Nová Ves", "region_name": "Košický", "municipality_name": "Smižany", "src": "Facebook Places" }, "geometry": { "type": "Point", "coordinates": [ 20.5043599, 48.9472 ] } },
{ "type": "Feature", "properties": { "level_0": 360, "index": 0, "checkins": 15.0, "city": "Spisske Tomasovce", "country": "Slovakia", "id": "255402398501649", "is_verified": false, "latitude": 48.946500469065001, "likes_n": 1.0, "located_in": null, "longitude": 20.486674596339, "name": "Hotel Flóra", "rating_count": "0.0", "street": "Čingov, Slovenský Raj", "website": "NaN", "zip": "052 01", "district_id": 810, "region_id": 8, "municipality_id": 543586, "district_name": "Spišská Nová Ves", "region_name": "Košický", "municipality_name": "Spišské Tomášovce", "src": "Facebook Places" }, "geometry": { "type": "Point", "coordinates": [ 20.486674596339, 48.946500469065001 ] } },
{ "type": "Feature", "properties": { "level_0": 361, "index": 0, "checkins": 43.0, "city": "Smizany", "country": "Slovakia", "id": "443660765714351", "is_verified": false, "latitude": 48.94806528, "likes_n": 3.0, "located_in": null, "longitude": 20.49011643, "name": "Hotel Čingov", "rating_count": "0.0", "street": "Hradisko", "website": "http://www.hotelcingov.sk/", "zip": null, "district_id": 810, "region_id": 8, "municipality_id": 543586, "district_name": "Spišská Nová Ves", "region_name": "Košický", "municipality_name": "Spišské Tomášovce", "src": "Facebook Places" }, "geometry": { "type": "Point", "coordinates": [ 20.49011643, 48.94806528 ] } },
{ "type": "Feature", "properties": { "level_0": 421, "index": 0, "checkins": 68.0, "city": "Smizany", "country": "Slovakia", "id": "890011757775543", "is_verified": false, "latitude": 48.939739830206001, "likes_n": 129.0, "located_in": null, "longitude": 20.513326725867, "name": "Chata Paradise", "rating_count": "5.0", "street": "Košiarny briežok 428", "website": "http://www.chataparadise.sk", "zip": "05311", "district_id": 810, "region_id": 8, "municipality_id": 560154, "district_name": "Spišská Nová Ves", "region_name": "Košický", "municipality_name": "Smižany", "src": "Facebook Places" }, "geometry": { "type": "Point", "coordinates": [ 20.513326725867, 48.939739830206001 ] } },
{ "type": "Feature", "properties": { "level_0": 443, "index": 0, "checkins": 714.0, "city": "Spisska Nova Ves", "country": "Slovakia", "id": "614163795381230", "is_verified": false, "latitude": 48.904375123000001, "likes_n": 773.0, "located_in": null, "longitude": 20.521293737000001, "name": "Penzión Kráľov prameň", "rating_count": "NaN", "street": "Novoveská cesta 29", "website": "http://hotelkralovpramen.sk", "zip": "05331", "district_id": 810, "region_id": 8, "municipality_id": 526355, "district_name": "Spišská Nová Ves", "region_name": "Košický", "municipality_name": "Spišská Nová Ves", "src": "Facebook Places" }, "geometry": { "type": "Point", "coordinates": [ 20.521293737, 48.904375123 ] } },
{ "type": "Feature", "properties": { "level_0": 445, "index": 0, "checkins": 0.0, "city": "Smizany", "country": "Slovakia", "id": "1570752453249860", "is_verified": false, "latitude": 48.93314, "likes_n": 1.0, "located_in": null, "longitude": 20.51769, "name": "Chata podbriezkom", "rating_count": "0.0", "street": "Kosiarny briezok", "website": "http://chatapodbriezkom.sk", "zip": "05311", "district_id": 810, "region_id": 8, "municipality_id": 560154, "district_name": "Spišská Nová Ves", "region_name": "Košický", "municipality_name": "Smižany", "src": "Facebook Places" }, "geometry": { "type": "Point", "coordinates": [ 20.51769, 48.93314 ] } },
{ "type": "Feature", "properties": { "level_0": 452, "index": 0, "checkins": 3.0, "city": "Spisska Nova Ves", "country": "Slovakia", "id": "1915328385406100", "is_verified": false, "latitude": 48.94438, "likes_n": 233.0, "located_in": null, "longitude": 20.56501, "name": "PB apartments", "rating_count": "11.0", "street": "Zimná 43", "website": "NaN", "zip": "05201", "district_id": 810, "region_id": 8, "municipality_id": 526355, "district_name": "Spišská Nová Ves", "region_name": "Košický", "municipality_name": "Spišská Nová Ves", "src": "Facebook Places" }, "geometry": { "type": "Point", "coordinates": [ 20.56501, 48.94438 ] } },
{ "type": "Feature", "properties": { "level_0": 454, "index": 0, "checkins": 4.0, "city": "Smizany", "country": "Slovakia", "id": "10153427144803468", "is_verified": false, "latitude": 48.95876, "likes_n": 70.0, "located_in": null, "longitude": 20.5174999, "name": "Soludus", "rating_count": "6.0", "street": "Námestie M. Pajdušáka 6/46", "website": "www.soludus.sk", "zip": "05311", "district_id": 810, "region_id": 8, "municipality_id": 560154, "district_name": "Spišská Nová Ves", "region_name": "Košický", "municipality_name": "Smižany", "src": "Facebook Places" }, "geometry": { "type": "Point", "coordinates": [ 20.5174999, 48.95876 ] } },
{ "type": "Feature", "properties": { "level_0": 455, "index": 0, "checkins": 3114.0, "city": "Spisska Nova Ves", "country": "Slovakia", "id": "10150169942858800", "is_verified": false, "latitude": 48.94657, "likes_n": 4119.0, "located_in": null, "longitude": 20.55884, "name": "Hotel Metropol - Spišská Nová Ves", "rating_count": "146.0", "street": "Štefánikovo námestie 2", "website": "www.hotelmetropol.sk", "zip": "052 01", "district_id": 810, "region_id": 8, "municipality_id": 526355, "district_name": "Spišská Nová Ves", "region_name": "Košický", "municipality_name": "Spišská Nová Ves", "src": "Facebook Places" }, "geometry": { "type": "Point", "coordinates": [ 20.55884, 48.94657 ] } },
{ "type": "Feature", "properties": { "level_0": 456, "index": 0, "checkins": 38.0, "city": "Teplicka", "country": "Slovakia", "id": "843418722392173", "is_verified": false, "latitude": 48.95, "likes_n": 94.0, "located_in": null, "longitude": 20.5667, "name": "Chata pod tepličkou", "rating_count": "3.0", "street": "Chatová osada pod Tepličkou 570", "website": "NaN", "zip": "05201", "district_id": 810, "region_id": 8, "municipality_id": 526355, "district_name": "Spišská Nová Ves", "region_name": "Košický", "municipality_name": "Spišská Nová Ves", "src": "Facebook Places" }, "geometry": { "type": "Point", "coordinates": [ 20.5667, 48.95 ] } },
{ "type": "Feature", "properties": { "level_0": 458, "index": 0, "checkins": 40.0, "city": "Spisska Nova Ves", "country": "Slovakia", "id": "683913534967453", "is_verified": false, "latitude": 48.94475, "likes_n": 220.0, "located_in": null, "longitude": 20.56412, "name": "Apartmány Rudolf", "rating_count": "10.0", "street": "Zimná č.35", "website": "http://www.rudolf.sk/", "zip": "05201", "district_id": 810, "region_id": 8, "municipality_id": 526355, "district_name": "Spišská Nová Ves", "region_name": "Košický", "municipality_name": "Spišská Nová Ves", "src": "Facebook Places" }, "geometry": { "type": "Point", "coordinates": [ 20.56412, 48.94475 ] } },
{ "type": "Feature", "properties": { "level_0": 423, "index": 0, "checkins": 10.0, "city": "Smizany", "country": "Slovakia", "id": "168852380142725", "is_verified": false, "latitude": 48.93314, "likes_n": 146.0, "located_in": null, "longitude": 20.51769, "name": "Cottage Breza", "rating_count": "8.0", "street": "Košiarny briežok", "website": "http://www.cottagebreza.sk", "zip": "053 11", "district_id": 810, "region_id": 8, "municipality_id": 560154, "district_name": "Spišská Nová Ves", "region_name": "Košický", "municipality_name": "Smižany", "src": "Facebook Places" }, "geometry": { "type": "Point", "coordinates": [ 20.51769, 48.93314 ] } },
{ "type": "Feature", "properties": { "level_0": 521, "index": 0, "checkins": 17.0, "city": "Krompachy", "country": "Slovakia", "id": "461513524013438", "is_verified": false, "latitude": 48.9132, "likes_n": 70.0, "located_in": null, "longitude": 20.88016, "name": "Turistická ubytovňa RELAX", "rating_count": "0.0", "street": "Maurerova 55", "website": "http://ubytovnarelax.webaster.sk", "zip": "05342", "district_id": 810, "region_id": 8, "municipality_id": 543268, "district_name": "Spišská Nová Ves", "region_name": "Košický", "municipality_name": "Krompachy", "src": "Facebook Places" }, "geometry": { "type": "Point", "coordinates": [ 20.88016, 48.9132 ] } },
{ "type": "Feature", "properties": { "level_0": 522, "index": 0, "checkins": 0.0, "city": "Krompachy", "country": "Slovakia", "id": "2681550451886271", "is_verified": false, "latitude": 48.9132, "likes_n": 0.0, "located_in": null, "longitude": 20.88016, "name": "Turisticka Ubytovna relax", "rating_count": "0.0", "street": "55 Maurerova", "website": "http://ubytovnarelax.webaster.sk", "zip": "053 42", "district_id": 810, "region_id": 8, "municipality_id": 543268, "district_name": "Spišská Nová Ves", "region_name": "Košický", "municipality_name": "Krompachy", "src": "Facebook Places" }, "geometry": { "type": "Point", "coordinates": [ 20.88016, 48.9132 ] } },
{ "type": "Feature", "properties": { "level_0": 523, "index": 0, "checkins": 433.0, "city": "Krompachy", "country": "Slovakia", "id": "225131334306524", "is_verified": false, "latitude": 48.906013301022, "likes_n": 34.0, "located_in": null, "longitude": 20.891210649708, "name": "Krompachy Plejsy", "rating_count": "2.0", "street": "Cintorínska", "website": "NaN", "zip": "05342", "district_id": 810, "region_id": 8, "municipality_id": 543268, "district_name": "Spišská Nová Ves", "region_name": "Košický", "municipality_name": "Krompachy", "src": "Facebook Places" }, "geometry": { "type": "Point", "coordinates": [ 20.891210649708, 48.906013301022 ] } },
{ "type": "Feature", "properties": { "level_0": 529, "index": 0, "checkins": 0.0, "city": "Spisske Vlachy", "country": "Slovakia", "id": "423575604414350", "is_verified": false, "latitude": 48.95, "likes_n": 6.0, "located_in": null, "longitude": 20.8, "name": "24h Betreuungsfinder / Europa", "rating_count": "0.0", "street": null, "website": "NaN", "zip": null, "district_id": 810, "region_id": 8, "municipality_id": 543594, "district_name": "Spišská Nová Ves", "region_name": "Košický", "municipality_name": "Spišské Vlachy", "src": "Facebook Places" }, "geometry": { "type": "Point", "coordinates": [ 20.8, 48.95 ] } },
{ "type": "Feature", "properties": { "level_0": 536, "index": 0, "checkins": 747.0, "city": "Dargov", "country": "Slovakia", "id": "395875917430259", "is_verified": false, "latitude": 48.734815886086999, "likes_n": 606.0, "located_in": null, "longitude": 21.564910051936, "name": "HOTEL Biele Studničky", "rating_count": "21.0", "street": "Hlavná 222", "website": "https://hoteldargov.sk/", "zip": "07661", "district_id": 811, "region_id": 8, "municipality_id": 528315, "district_name": "Trebišov", "region_name": "Košický", "municipality_name": "Dargov", "src": "Facebook Places" }, "geometry": { "type": "Point", "coordinates": [ 21.564910051936, 48.734815886086999 ] } },
{ "type": "Feature", "properties": { "level_0": 579, "index": 0, "checkins": 166.0, "city": "Velka Trna", "country": "Slovakia", "id": "476547815761623", "is_verified": false, "latitude": 48.466026035059002, "likes_n": 26.0, "located_in": null, "longitude": 21.678017094895999, "name": "Ostrožovič Winery - Slovak Tokaj Region", "rating_count": "1.0", "street": null, "website": "http://www.ostrozovic.sk/", "zip": null, "district_id": 811, "region_id": 8, "municipality_id": 513806, "district_name": "Trebišov", "region_name": "Košický", "municipality_name": "Veľká Tŕňa", "src": "Facebook Places" }, "geometry": { "type": "Point", "coordinates": [ 21.678017094895999, 48.466026035059002 ] } },
{ "type": "Feature", "properties": { "level_0": 580, "index": 0, "checkins": 7.0, "city": "Mala Trna", "country": "Slovakia", "id": "645289292270766", "is_verified": false, "latitude": 48.4557419, "likes_n": 279.0, "located_in": null, "longitude": 21.6823502, "name": "Tokaj Chalupa", "rating_count": "1.0", "street": "Kostolná 30", "website": "http://www.tokajchalupa.sk", "zip": "07682", "district_id": 811, "region_id": 8, "municipality_id": 513792, "district_name": "Trebišov", "region_name": "Košický", "municipality_name": "Malá Tŕňa", "src": "Facebook Places" }, "geometry": { "type": "Point", "coordinates": [ 21.6823502, 48.4557419 ] } },
{ "type": "Feature", "properties": { "level_0": 595, "index": 0, "checkins": 30.0, "city": "Vinicky", "country": "Slovakia", "id": "175148422962654", "is_verified": false, "latitude": 48.3977, "likes_n": 198.0, "located_in": null, "longitude": 21.73235, "name": "Apartmán Vínny dom Viničky - Tokaj", "rating_count": "3.0", "street": "Hlavná 87", "website": "http://www.booking.com/hotel/sk/apartment-vinny-dom-vinicky2.sk.html", "zip": "07631", "district_id": 811, "region_id": 8, "municipality_id": 543926, "district_name": "Trebišov", "region_name": "Košický", "municipality_name": "Viničky", "src": "Facebook Places" }, "geometry": { "type": "Point", "coordinates": [ 21.73235, 48.3977 ] } },
{ "type": "Feature", "properties": { "level_0": 131, "index": 0, "checkins": 1.0, "city": "Silica", "country": "Slovakia", "id": "642906582483462", "is_verified": false, "latitude": 48.55406, "likes_n": 32.0, "located_in": null, "longitude": 20.51978, "name": "Pekar Penzion", "rating_count": "0.0", "street": "Silica 131", "website": "NaN", "zip": "04952", "district_id": 808, "region_id": 8, "municipality_id": 526223, "district_name": "Rožňava", "region_name": "Košický", "municipality_name": "Silica", "src": "Facebook Places" }, "geometry": { "type": "Point", "coordinates": [ 20.51978, 48.55406 ] } },
{ "type": "Feature", "properties": { "level_0": 130, "index": 0, "checkins": 9.0, "city": "Roznava", "country": "Slovakia", "id": "687820278051859", "is_verified": false, "latitude": 48.583768901840998, "likes_n": 290.0, "located_in": null, "longitude": 20.466649532318002, "name": "Ubytovanie -Chalupa Ida Vendégház-Slavec", "rating_count": "0.0", "street": "Slavec č.5", "website": "www.chalupaida.estranky.cz", "zip": "04911", "district_id": 808, "region_id": 8, "municipality_id": 526266, "district_name": "Rožňava", "region_name": "Košický", "municipality_name": "Slavec", "src": "Facebook Places" }, "geometry": { "type": "Point", "coordinates": [ 20.466649532318002, 48.583768901840998 ] } },
{ "type": "Feature", "properties": { "level_0": 138, "index": 0, "checkins": 156.0, "city": "Roznava", "country": "Slovakia", "id": "1471493389625224", "is_verified": false, "latitude": 48.658045174336003, "likes_n": 291.0, "located_in": null, "longitude": 20.530915260314998, "name": "Hotel Kras", "rating_count": "6.0", "street": "Šafárikova 52", "website": "http://www.hotel-kras.sk/", "zip": "048 01", "district_id": 808, "region_id": 8, "municipality_id": 525529, "district_name": "Rožňava", "region_name": "Košický", "municipality_name": "Rožňava", "src": "Facebook Places" }, "geometry": { "type": "Point", "coordinates": [ 20.530915260314998, 48.658045174336003 ] } },
{ "type": "Feature", "properties": { "level_0": 366, "index": 0, "checkins": 4.0, "city": "Smizany", "country": "Slovakia", "id": "322571288521111", "is_verified": false, "latitude": 48.95565, "likes_n": 0.0, "located_in": null, "longitude": 20.51962, "name": "Villa Elena", "rating_count": "0.0", "street": "Tatranská 96", "website": "NaN", "zip": "053 11", "district_id": 810, "region_id": 8, "municipality_id": 560154, "district_name": "Spišská Nová Ves", "region_name": "Košický", "municipality_name": "Smižany", "src": "Facebook Places" }, "geometry": { "type": "Point", "coordinates": [ 20.51962, 48.95565 ] } },
{ "type": "Feature", "properties": { "level_0": 378, "index": 0, "checkins": 12.0, "city": "Spisske Tomasovce", "country": "Slovakia", "id": "1852898128290575", "is_verified": false, "latitude": 48.944387296038997, "likes_n": 185.0, "located_in": null, "longitude": 20.491009354591, "name": "SOVIA CHATA, Slovenský raj", "rating_count": "5.0", "street": "Čingov, Slovenský raj", "website": "www.soviachata.sk", "zip": "052 01", "district_id": 810, "region_id": 8, "municipality_id": 543586, "district_name": "Spišská Nová Ves", "region_name": "Košický", "municipality_name": "Spišské Tomášovce", "src": "Facebook Places" }, "geometry": { "type": "Point", "coordinates": [ 20.491009354591, 48.944387296038997 ] } },
{ "type": "Feature", "properties": { "level_0": 379, "index": 0, "checkins": 62.0, "city": "Smizany", "country": "Slovakia", "id": "162444287148696", "is_verified": false, "latitude": 48.937386002167003, "likes_n": 374.0, "located_in": null, "longitude": 20.509607791901001, "name": "Franmark - Chaty v Slovenskom raji", "rating_count": "29.0", "street": "Košiarny briežok 3518", "website": "www.franmark.sk", "zip": "05311", "district_id": 810, "region_id": 8, "municipality_id": 560154, "district_name": "Spišská Nová Ves", "region_name": "Košický", "municipality_name": "Smižany", "src": "Facebook Places" }, "geometry": { "type": "Point", "coordinates": [ 20.509607791901001, 48.937386002167003 ] } },
{ "type": "Feature", "properties": { "level_0": 277, "index": 0, "checkins": 17.0, "city": "Hrabusice", "country": "Slovakia", "id": "331101367580049", "is_verified": false, "latitude": 48.944538797832998, "likes_n": 670.0, "located_in": null, "longitude": 20.347194671631001, "name": "Chalupa Skokanovo", "rating_count": "7.0", "street": "Píla 465", "website": "http://www.skokanovo.com", "zip": "05315", "district_id": 810, "region_id": 8, "municipality_id": 526592, "district_name": "Spišská Nová Ves", "region_name": "Košický", "municipality_name": "Hrabušice", "src": "Facebook Places" }, "geometry": { "type": "Point", "coordinates": [ 20.347194671631001, 48.944538797832998 ] } },
{ "type": "Feature", "properties": { "level_0": 279, "index": 0, "checkins": 0.0, "city": "Hrabusice", "country": "Slovakia", "id": "101394971225253", "is_verified": false, "latitude": 48.97516, "likes_n": 0.0, "located_in": null, "longitude": 20.41118, "name": "Ubytovanie Slovensky Raj", "rating_count": "0.0", "street": "Partizánska 160", "website": "NaN", "zip": "05315", "district_id": 810, "region_id": 8, "municipality_id": 526592, "district_name": "Spišská Nová Ves", "region_name": "Košický", "municipality_name": "Hrabušice", "src": "Facebook Places" }, "geometry": { "type": "Point", "coordinates": [ 20.41118, 48.97516 ] } },
{ "type": "Feature", "properties": { "level_0": 284, "index": 0, "checkins": 728.0, "city": "Dedinky", "country": "Slovakia", "id": "358398707610978", "is_verified": false, "latitude": 48.880282422664003, "likes_n": 351.0, "located_in": null, "longitude": 20.396732320127999, "name": "Horský Hotel Geravy - Dedinky", "rating_count": "8.0", "street": null, "website": "http://www.geravy.com/", "zip": null, "district_id": 810, "region_id": 8, "municipality_id": 560154, "district_name": "Spišská Nová Ves", "region_name": "Košický", "municipality_name": "Smižany", "src": "Facebook Places" }, "geometry": { "type": "Point", "coordinates": [ 20.396732320127999, 48.880282422664003 ] } },
{ "type": "Feature", "properties": { "level_0": 283, "index": 0, "checkins": 0.0, "city": "Dedinky", "country": "Slovakia", "id": "460439147683421", "is_verified": false, "latitude": 48.86604, "likes_n": 41.0, "located_in": null, "longitude": 20.3827, "name": "Bubo", "rating_count": "0.0", "street": "Dedinky 21", "website": "http://www.megaubytovanie.sk/chata-bubo", "zip": "049 73", "district_id": 808, "region_id": 8, "municipality_id": 525618, "district_name": "Rožňava", "region_name": "Košický", "municipality_name": "Dedinky", "src": "Facebook Places" }, "geometry": { "type": "Point", "coordinates": [ 20.3827, 48.86604 ] } },
{ "type": "Feature", "properties": { "level_0": 287, "index": 0, "checkins": 91.0, "city": "Kosice", "country": "Slovakia", "id": "1132539703501506", "is_verified": false, "latitude": 48.86309, "likes_n": 605.0, "located_in": null, "longitude": 20.38709, "name": "Ubytovanie Dedinky", "rating_count": "11.0", "street": "Dedinky 108", "website": "http://www.ubytovaniededinky.sk", "zip": "04973", "district_id": 808, "region_id": 8, "municipality_id": 525618, "district_name": "Rožňava", "region_name": "Košický", "municipality_name": "Dedinky", "src": "Facebook Places" }, "geometry": { "type": "Point", "coordinates": [ 20.38709, 48.86309 ] } },
{ "type": "Feature", "properties": { "level_0": 289, "index": 0, "checkins": 108.0, "city": "Dedinky", "country": "Slovakia", "id": "746657148782222", "is_verified": false, "latitude": 48.852977, "likes_n": 75.0, "located_in": null, "longitude": 20.3883381, "name": "HOTEL Geravy", "rating_count": "3.0", "street": "Dedinky", "website": "NaN", "zip": null, "district_id": 810, "region_id": 8, "municipality_id": 543357, "district_name": "Spišská Nová Ves", "region_name": "Košický", "municipality_name": "Mlynky", "src": "Facebook Places" }, "geometry": { "type": "Point", "coordinates": [ 20.3883381, 48.852977 ] } },
{ "type": "Feature", "properties": { "level_0": 290, "index": 0, "checkins": 0.0, "city": "Mlynky", "country": "Slovakia", "id": "104935651010111", "is_verified": false, "latitude": 48.85337, "likes_n": 275.0, "located_in": null, "longitude": 20.4050699, "name": "Chalupa-Mlynky", "rating_count": "0.0", "street": "Prostredný Hámor 184", "website": "NaN", "zip": "053 76", "district_id": 810, "region_id": 8, "municipality_id": 543357, "district_name": "Spišská Nová Ves", "region_name": "Košický", "municipality_name": "Mlynky", "src": "Facebook Places" }, "geometry": { "type": "Point", "coordinates": [ 20.4050699, 48.85337 ] } },
{ "type": "Feature", "properties": { "level_0": 331, "index": 0, "checkins": 6.0, "city": "Hrabusice", "country": "Slovakia", "id": "324722758240502", "is_verified": false, "latitude": 48.9680875, "likes_n": 95.0, "located_in": null, "longitude": 20.3854174, "name": "Malý Majer - Podlesok", "rating_count": "4.0", "street": "Majer", "website": "https://malymajerpodlesok.sk", "zip": "053 15", "district_id": 810, "region_id": 8, "municipality_id": 526592, "district_name": "Spišská Nová Ves", "region_name": "Košický", "municipality_name": "Hrabušice", "src": "Facebook Places" }, "geometry": { "type": "Point", "coordinates": [ 20.3854174, 48.9680875 ] } },
{ "type": "Feature", "properties": { "level_0": 459, "index": 0, "checkins": 85.0, "city": "Spisska Nova Ves", "country": "Slovakia", "id": "926939930688150", "is_verified": false, "latitude": 48.944809, "likes_n": 39.0, "located_in": null, "longitude": 20.5639896, "name": "Parkhotel Centrum", "rating_count": "2.0", "street": "Zimná 34", "website": "http://parkhotelcentrum.sk", "zip": "05201", "district_id": 810, "region_id": 8, "municipality_id": 526355, "district_name": "Spišská Nová Ves", "region_name": "Košický", "municipality_name": "Spišská Nová Ves", "src": "Facebook Places" }, "geometry": { "type": "Point", "coordinates": [ 20.5639896, 48.944809 ] } },
{ "type": "Feature", "properties": { "level_0": 466, "index": 0, "checkins": 71.0, "city": "Iliasovce", "country": "Slovakia", "id": "266092276770325", "is_verified": false, "latitude": 48.98409, "likes_n": 13.0, "located_in": null, "longitude": 20.52965, "name": "Apartments Mikolaj near Slovenský raj", "rating_count": "0.0", "street": "Iliašovce 196", "website": "http://www.ubytovaniespis.wbl.sk/", "zip": "053 11", "district_id": 810, "region_id": 8, "municipality_id": 543161, "district_name": "Spišská Nová Ves", "region_name": "Košický", "municipality_name": "Iliašovce", "src": "Facebook Places" }, "geometry": { "type": "Point", "coordinates": [ 20.52965, 48.98409 ] } },
{ "type": "Feature", "properties": { "level_0": 472, "index": 0, "checkins": 1.0, "city": "Spisska Nova Ves", "country": "Slovakia", "id": "393887171338371", "is_verified": false, "latitude": 48.94301, "likes_n": 0.0, "located_in": null, "longitude": 20.5696, "name": "Grillbar Penzion & Restaurant", "rating_count": "0.0", "street": "Zimná", "website": "NaN", "zip": "052 01", "district_id": 810, "region_id": 8, "municipality_id": 526355, "district_name": "Spišská Nová Ves", "region_name": "Košický", "municipality_name": "Spišská Nová Ves", "src": "Facebook Places" }, "geometry": { "type": "Point", "coordinates": [ 20.5696, 48.94301 ] } },
{ "type": "Feature", "properties": { "level_0": 473, "index": 0, "checkins": 6.0, "city": "Spisska Nova Ves", "country": "Slovakia", "id": "131557438215148", "is_verified": false, "latitude": 48.95146, "likes_n": 170.0, "located_in": null, "longitude": 20.54097, "name": "Garni Hotel 31", "rating_count": "4.0", "street": "Duklianska 57", "website": "NaN", "zip": "05201", "district_id": 810, "region_id": 8, "municipality_id": 526355, "district_name": "Spišská Nová Ves", "region_name": "Košický", "municipality_name": "Spišská Nová Ves", "src": "Facebook Places" }, "geometry": { "type": "Point", "coordinates": [ 20.54097, 48.95146 ] } },
{ "type": "Feature", "properties": { "level_0": 463, "index": 0, "checkins": 0.0, "city": "Spisska Nova Ves", "country": "Slovakia", "id": "172429757043710", "is_verified": false, "latitude": 48.94663, "likes_n": 24.0, "located_in": null, "longitude": 20.5653, "name": "Hostinec Štamgast", "rating_count": "0.0", "street": "Gorazdova 30", "website": "NaN", "zip": "05201", "district_id": 810, "region_id": 8, "municipality_id": 526355, "district_name": "Spišská Nová Ves", "region_name": "Košický", "municipality_name": "Spišská Nová Ves", "src": "Facebook Places" }, "geometry": { "type": "Point", "coordinates": [ 20.5653, 48.94663 ] } },
{ "type": "Feature", "properties": { "level_0": 464, "index": 0, "checkins": 1.0, "city": "Spisska Nova Ves", "country": "Slovakia", "id": "597079160799143", "is_verified": false, "latitude": 48.94778, "likes_n": 0.0, "located_in": null, "longitude": 20.55599, "name": "Penzión Green", "rating_count": "0.0", "street": "15 Duklianska", "website": "NaN", "zip": "052 01", "district_id": 810, "region_id": 8, "municipality_id": 526355, "district_name": "Spišská Nová Ves", "region_name": "Košický", "municipality_name": "Spišská Nová Ves", "src": "Facebook Places" }, "geometry": { "type": "Point", "coordinates": [ 20.55599, 48.94778 ] } },
{ "type": "Feature", "properties": { "level_0": 465, "index": 0, "checkins": 116.0, "city": "Spisska Nova Ves", "country": "Slovakia", "id": "236915969687820", "is_verified": false, "latitude": 48.946718137287, "likes_n": 1.0, "located_in": null, "longitude": 20.55917957606, "name": "Hotel Metropol", "rating_count": "0.0", "street": null, "website": "NaN", "zip": "05201", "district_id": 810, "region_id": 8, "municipality_id": 526355, "district_name": "Spišská Nová Ves", "region_name": "Košický", "municipality_name": "Spišská Nová Ves", "src": "Facebook Places" }, "geometry": { "type": "Point", "coordinates": [ 20.55917957606, 48.946718137287 ] } },
{ "type": "Feature", "properties": { "level_0": 470, "index": 0, "checkins": 1.0, "city": "Spisska Nova Ves", "country": "Slovakia", "id": "324487591527933", "is_verified": false, "latitude": 48.943887791255001, "likes_n": 0.0, "located_in": null, "longitude": 20.570456261383999, "name": "Penzion Renesance", "rating_count": "0.0", "street": null, "website": "http://www.renesance.sk/", "zip": "052 01", "district_id": 810, "region_id": 8, "municipality_id": 526355, "district_name": "Spišská Nová Ves", "region_name": "Košický", "municipality_name": "Spišská Nová Ves", "src": "Facebook Places" }, "geometry": { "type": "Point", "coordinates": [ 20.570456261383999, 48.943887791255001 ] } },
{ "type": "Feature", "properties": { "level_0": 537, "index": 0, "checkins": 394.0, "city": "Dargov", "country": "Slovakia", "id": "378066262225844", "is_verified": false, "latitude": 48.73475, "likes_n": 106.0, "located_in": null, "longitude": 21.5649799, "name": "Hotel Biele Studničky", "rating_count": "15.0", "street": null, "website": "NaN", "zip": "07661", "district_id": 811, "region_id": 8, "municipality_id": 528315, "district_name": "Trebišov", "region_name": "Košický", "municipality_name": "Dargov", "src": "Facebook Places" }, "geometry": { "type": "Point", "coordinates": [ 21.5649799, 48.73475 ] } }
]
}
