{
"type": "FeatureCollection",
"name": "29_slr_food_beverage",
"crs": { "type": "name", "properties": { "name": "urn:ogc:def:crs:OGC:1.3:CRS84" } },
"features": [
{ "type": "Feature", "properties": { "osm_id": "30949421", "code": 2301, "fclass": "restaurant", "name": "Koliba" }, "geometry": { "type": "Point", "coordinates": [ 20.3093757, 49.0606724 ] } },
{ "type": "Feature", "properties": { "osm_id": "259194759", "code": 2301, "fclass": "restaurant", "name": "Spišský salaš" }, "geometry": { "type": "Point", "coordinates": [ 20.7317917, 49.0066726 ] } },
{ "type": "Feature", "properties": { "osm_id": "322815270", "code": 2301, "fclass": "restaurant", "name": "Čajovňa Katka" }, "geometry": { "type": "Point", "coordinates": [ 20.9815338, 48.7772055 ] } },
{ "type": "Feature", "properties": { "osm_id": "331850075", "code": 2301, "fclass": "restaurant", "name": "Tatran" }, "geometry": { "type": "Point", "coordinates": [ 20.9376827, 48.8533463 ] } },
{ "type": "Feature", "properties": { "osm_id": "356637649", "code": 2303, "fclass": "cafe", "name": "Larsen bar" }, "geometry": { "type": "Point", "coordinates": [ 20.5330807, 48.6615179 ] } },
{ "type": "Feature", "properties": { "osm_id": "388481111", "code": 2303, "fclass": "cafe", "name": "Kaviareň Európa" }, "geometry": { "type": "Point", "coordinates": [ 20.8840535, 48.9206365 ] } },
{ "type": "Feature", "properties": { "osm_id": "388481149", "code": 2301, "fclass": "restaurant", "name": "Pizzeria" }, "geometry": { "type": "Point", "coordinates": [ 20.8746116, 48.9113903 ] } },
{ "type": "Feature", "properties": { "osm_id": "416352949", "code": 2303, "fclass": "cafe", "name": "Nepálska čajovna" }, "geometry": { "type": "Point", "coordinates": [ 20.6398797, 48.9993756 ] } },
{ "type": "Feature", "properties": { "osm_id": "457846736", "code": 2301, "fclass": "restaurant", "name": "Hostinec U Radika" }, "geometry": { "type": "Point", "coordinates": [ 20.3796272, 48.8667777 ] } },
{ "type": "Feature", "properties": { "osm_id": "457875167", "code": 2301, "fclass": "restaurant", "name": "Lesnica" }, "geometry": { "type": "Point", "coordinates": [ 20.4856813, 48.9446157 ] } },
{ "type": "Feature", "properties": { "osm_id": "457875168", "code": 2302, "fclass": "fast_food", "name": "Bufet Čingov" }, "geometry": { "type": "Point", "coordinates": [ 20.4850458, 48.9450171 ] } },
{ "type": "Feature", "properties": { "osm_id": "473480441", "code": 2301, "fclass": "restaurant", "name": "Geravy" }, "geometry": { "type": "Point", "coordinates": [ 20.3962259, 48.8801937 ] } },
{ "type": "Feature", "properties": { "osm_id": "503672782", "code": 2303, "fclass": "cafe", "name": "Imperio" }, "geometry": { "type": "Point", "coordinates": [ 20.7524125, 49.0003365 ] } },
{ "type": "Feature", "properties": { "osm_id": "503675061", "code": 2301, "fclass": "restaurant", "name": "U kastelána" }, "geometry": { "type": "Point", "coordinates": [ 20.7527552, 49.001113 ] } },
{ "type": "Feature", "properties": { "osm_id": "503677547", "code": 2301, "fclass": "restaurant", "name": "Pod hradom" }, "geometry": { "type": "Point", "coordinates": [ 20.7548361, 49.0006583 ] } },
{ "type": "Feature", "properties": { "osm_id": "602964014", "code": 2301, "fclass": "restaurant", "name": "Salaš Veľký Slavkov" }, "geometry": { "type": "Point", "coordinates": [ 20.2859613, 49.09015 ] } },
{ "type": "Feature", "properties": { "osm_id": "603658051", "code": 2305, "fclass": "bar", "name": "U  Ľubice" }, "geometry": { "type": "Point", "coordinates": [ 20.5868535, 48.9093611 ] } },
{ "type": "Feature", "properties": { "osm_id": "603658147", "code": 2305, "fclass": "bar", "name": null }, "geometry": { "type": "Point", "coordinates": [ 20.5894599, 48.9085108 ] } },
{ "type": "Feature", "properties": { "osm_id": "609983398", "code": 2301, "fclass": "restaurant", "name": "Utópia" }, "geometry": { "type": "Point", "coordinates": [ 20.3012963, 49.0484055 ] } },
{ "type": "Feature", "properties": { "osm_id": "701535230", "code": 2302, "fclass": "fast_food", "name": "Inline Stop" }, "geometry": { "type": "Point", "coordinates": [ 20.2177269, 49.053577 ] } },
{ "type": "Feature", "properties": { "osm_id": "716437253", "code": 2305, "fclass": "bar", "name": "Bar Dino" }, "geometry": { "type": "Point", "coordinates": [ 20.9395201, 48.8545978 ] } },
{ "type": "Feature", "properties": { "osm_id": "719748919", "code": 2301, "fclass": "restaurant", "name": "Velický zámoček" }, "geometry": { "type": "Point", "coordinates": [ 20.270522, 49.065522 ] } },
{ "type": "Feature", "properties": { "osm_id": "739000222", "code": 2301, "fclass": "restaurant", "name": "Šafran" }, "geometry": { "type": "Point", "coordinates": [ 20.3457962, 48.8686311 ] } },
{ "type": "Feature", "properties": { "osm_id": "739000304", "code": 2301, "fclass": "restaurant", "name": "Ranč pod Ostrou skalou" }, "geometry": { "type": "Point", "coordinates": [ 20.2795401, 48.8731294 ] } },
{ "type": "Feature", "properties": { "osm_id": "774464968", "code": 2302, "fclass": "fast_food", "name": "Hot Pot" }, "geometry": { "type": "Point", "coordinates": [ 20.5710167, 49.0130192 ] } },
{ "type": "Feature", "properties": { "osm_id": "824798451", "code": 2301, "fclass": "restaurant", "name": "Centrum" }, "geometry": { "type": "Point", "coordinates": [ 20.8722891, 48.910215 ] } },
{ "type": "Feature", "properties": { "osm_id": "824798453", "code": 2301, "fclass": "restaurant", "name": "Melodia" }, "geometry": { "type": "Point", "coordinates": [ 20.8743384, 48.910899 ] } },
{ "type": "Feature", "properties": { "osm_id": "824798456", "code": 2301, "fclass": "restaurant", "name": "Galéria" }, "geometry": { "type": "Point", "coordinates": [ 20.8743968, 48.9093195 ] } },
{ "type": "Feature", "properties": { "osm_id": "870531810", "code": 2518, "fclass": "beverages", "name": "Girtabo" }, "geometry": { "type": "Point", "coordinates": [ 20.3218964, 49.0655379 ] } },
{ "type": "Feature", "properties": { "osm_id": "936918430", "code": 2301, "fclass": "restaurant", "name": "Hostinec pod stolicou" }, "geometry": { "type": "Point", "coordinates": [ 20.2834512, 48.7896258 ] } },
{ "type": "Feature", "properties": { "osm_id": "1011434272", "code": 2303, "fclass": "cafe", "name": "Bar" }, "geometry": { "type": "Point", "coordinates": [ 20.9531159, 48.9714707 ] } },
{ "type": "Feature", "properties": { "osm_id": "1011434293", "code": 2303, "fclass": "cafe", "name": "Kaviareň s bowlingom" }, "geometry": { "type": "Point", "coordinates": [ 20.9546928, 48.9687919 ] } },
{ "type": "Feature", "properties": { "osm_id": "1011434318", "code": 2301, "fclass": "restaurant", "name": "U Armstronga" }, "geometry": { "type": "Point", "coordinates": [ 20.9540525, 48.967898 ] } },
{ "type": "Feature", "properties": { "osm_id": "1098750585", "code": 2301, "fclass": "restaurant", "name": "U Troch Apoštolov" }, "geometry": { "type": "Point", "coordinates": [ 20.5903629, 49.0266132 ] } },
{ "type": "Feature", "properties": { "osm_id": "1098750691", "code": 2303, "fclass": "cafe", "name": "Art Galery Cafe" }, "geometry": { "type": "Point", "coordinates": [ 20.5890145, 49.0270733 ] } },
{ "type": "Feature", "properties": { "osm_id": "1098752456", "code": 2302, "fclass": "fast_food", "name": "Happy Food" }, "geometry": { "type": "Point", "coordinates": [ 20.5889738, 49.0269964 ] } },
{ "type": "Feature", "properties": { "osm_id": "1102476532", "code": 2301, "fclass": "restaurant", "name": "Venezia" }, "geometry": { "type": "Point", "coordinates": [ 20.2950609, 49.0458757 ] } },
{ "type": "Feature", "properties": { "osm_id": "1307213801", "code": 2301, "fclass": "restaurant", "name": null }, "geometry": { "type": "Point", "coordinates": [ 20.7907918, 48.7208867 ] } },
{ "type": "Feature", "properties": { "osm_id": "1307213906", "code": 2303, "fclass": "cafe", "name": "Caffé Komporday" }, "geometry": { "type": "Point", "coordinates": [ 20.7910108, 48.720885 ] } },
{ "type": "Feature", "properties": { "osm_id": "1423356379", "code": 2301, "fclass": "restaurant", "name": "Greš" }, "geometry": { "type": "Point", "coordinates": [ 20.9426251, 48.9992353 ] } },
{ "type": "Feature", "properties": { "osm_id": "1423356383", "code": 2301, "fclass": "restaurant", "name": "Marini" }, "geometry": { "type": "Point", "coordinates": [ 20.9425929, 48.9993918 ] } },
{ "type": "Feature", "properties": { "osm_id": "1423356406", "code": 2518, "fclass": "beverages", "name": "Zlatá studňa" }, "geometry": { "type": "Point", "coordinates": [ 20.9427282, 49.0046582 ] } },
{ "type": "Feature", "properties": { "osm_id": "1460475296", "code": 2301, "fclass": "restaurant", "name": null }, "geometry": { "type": "Point", "coordinates": [ 20.7682238, 48.9993412 ] } },
{ "type": "Feature", "properties": { "osm_id": "1460475365", "code": 2303, "fclass": "cafe", "name": null }, "geometry": { "type": "Point", "coordinates": [ 20.7413697, 49.0003373 ] } },
{ "type": "Feature", "properties": { "osm_id": "1485871187", "code": 2301, "fclass": "restaurant", "name": "Urbársky dom" }, "geometry": { "type": "Point", "coordinates": [ 20.4081678, 48.9753076 ] } },
{ "type": "Feature", "properties": { "osm_id": "1485871203", "code": 2301, "fclass": "restaurant", "name": "Stenix" }, "geometry": { "type": "Point", "coordinates": [ 20.4664468, 49.003373 ] } },
{ "type": "Feature", "properties": { "osm_id": "1486103814", "code": 2302, "fclass": "fast_food", "name": null }, "geometry": { "type": "Point", "coordinates": [ 20.8914594, 48.8900958 ] } },
{ "type": "Feature", "properties": { "osm_id": "1512044851", "code": 2301, "fclass": "restaurant", "name": null }, "geometry": { "type": "Point", "coordinates": [ 20.2946909, 49.0594699 ] } },
{ "type": "Feature", "properties": { "osm_id": "1533931611", "code": 2518, "fclass": "beverages", "name": "Alkomix" }, "geometry": { "type": "Point", "coordinates": [ 20.7968812, 48.9484946 ] } },
{ "type": "Feature", "properties": { "osm_id": "1634614101", "code": 2301, "fclass": "restaurant", "name": "Koliba" }, "geometry": { "type": "Point", "coordinates": [ 20.3877833, 48.9635612 ] } },
{ "type": "Feature", "properties": { "osm_id": "1654814056", "code": 2302, "fclass": "fast_food", "name": "Kebabing" }, "geometry": { "type": "Point", "coordinates": [ 20.3035318, 49.0546932 ] } },
{ "type": "Feature", "properties": { "osm_id": "1654822287", "code": 2302, "fclass": "fast_food", "name": "McDuck" }, "geometry": { "type": "Point", "coordinates": [ 20.3052843, 49.0558406 ] } },
{ "type": "Feature", "properties": { "osm_id": "1745789240", "code": 2301, "fclass": "restaurant", "name": "U Vodnára" }, "geometry": { "type": "Point", "coordinates": [ 20.6948567, 48.7087589 ] } },
{ "type": "Feature", "properties": { "osm_id": "1776203906", "code": 2301, "fclass": "restaurant", "name": "Delta restaurant" }, "geometry": { "type": "Point", "coordinates": [ 20.307951, 48.9876129 ] } },
{ "type": "Feature", "properties": { "osm_id": "1776203909", "code": 2305, "fclass": "bar", "name": "B-club" }, "geometry": { "type": "Point", "coordinates": [ 20.3091996, 48.987138 ] } },
{ "type": "Feature", "properties": { "osm_id": "1776203910", "code": 2305, "fclass": "bar", "name": "Pohostinstvo Monika" }, "geometry": { "type": "Point", "coordinates": [ 20.3077029, 48.9864855 ] } },
{ "type": "Feature", "properties": { "osm_id": "1776203913", "code": 2301, "fclass": "restaurant", "name": "Gazdovský dvor" }, "geometry": { "type": "Point", "coordinates": [ 20.3074789, 48.9867478 ] } },
{ "type": "Feature", "properties": { "osm_id": "1776203919", "code": 2305, "fclass": "bar", "name": "Bistro pod Lipou" }, "geometry": { "type": "Point", "coordinates": [ 20.3081964, 48.9874075 ] } },
{ "type": "Feature", "properties": { "osm_id": "2012887385", "code": 2301, "fclass": "restaurant", "name": "U Eda" }, "geometry": { "type": "Point", "coordinates": [ 20.364777, 48.8204561 ] } },
{ "type": "Feature", "properties": { "osm_id": "2012887397", "code": 2518, "fclass": "beverages", "name": null }, "geometry": { "type": "Point", "coordinates": [ 20.3666, 48.820545 ] } },
{ "type": "Feature", "properties": { "osm_id": "2016982675", "code": 2303, "fclass": "cafe", "name": "Cafeteria Flashback" }, "geometry": { "type": "Point", "coordinates": [ 20.2943847, 49.0591489 ] } },
{ "type": "Feature", "properties": { "osm_id": "2101870852", "code": 2301, "fclass": "restaurant", "name": "Canuma" }, "geometry": { "type": "Point", "coordinates": [ 20.3028736, 49.0548134 ] } },
{ "type": "Feature", "properties": { "osm_id": "2101870866", "code": 2301, "fclass": "restaurant", "name": "Pizza Da Pippo" }, "geometry": { "type": "Point", "coordinates": [ 20.3018677, 49.0546414 ] } },
{ "type": "Feature", "properties": { "osm_id": "2113969382", "code": 2301, "fclass": "restaurant", "name": "Nova" }, "geometry": { "type": "Point", "coordinates": [ 20.7952669, 48.9487949 ] } },
{ "type": "Feature", "properties": { "osm_id": "2113969390", "code": 2305, "fclass": "bar", "name": "Snack Bar" }, "geometry": { "type": "Point", "coordinates": [ 20.7939076, 48.9486071 ] } },
{ "type": "Feature", "properties": { "osm_id": "2113969414", "code": 2301, "fclass": "restaurant", "name": "Zlatý klas" }, "geometry": { "type": "Point", "coordinates": [ 20.7957646, 48.948567 ] } },
{ "type": "Feature", "properties": { "osm_id": "2123940176", "code": 2301, "fclass": "restaurant", "name": "Tony Pizza" }, "geometry": { "type": "Point", "coordinates": [ 20.5279292, 48.9561849 ] } },
{ "type": "Feature", "properties": { "osm_id": "2145798557", "code": 2301, "fclass": "restaurant", "name": null }, "geometry": { "type": "Point", "coordinates": [ 20.6090853, 49.0679655 ] } },
{ "type": "Feature", "properties": { "osm_id": "2145798569", "code": 2302, "fclass": "fast_food", "name": null }, "geometry": { "type": "Point", "coordinates": [ 20.608925, 49.0684692 ] } },
{ "type": "Feature", "properties": { "osm_id": "2150123919", "code": 2303, "fclass": "cafe", "name": "Lucia" }, "geometry": { "type": "Point", "coordinates": [ 20.2995247, 49.0545977 ] } },
{ "type": "Feature", "properties": { "osm_id": "2150123920", "code": 2303, "fclass": "cafe", "name": "Sladký sen" }, "geometry": { "type": "Point", "coordinates": [ 20.301137, 49.0544535 ] } },
{ "type": "Feature", "properties": { "osm_id": "2168842273", "code": 2305, "fclass": "bar", "name": "Zio bar" }, "geometry": { "type": "Point", "coordinates": [ 20.5678596, 48.9467562 ] } },
{ "type": "Feature", "properties": { "osm_id": "2168886884", "code": 2305, "fclass": "bar", "name": "Club 24" }, "geometry": { "type": "Point", "coordinates": [ 20.3025235, 49.0571131 ] } },
{ "type": "Feature", "properties": { "osm_id": "2168892995", "code": 2301, "fclass": "restaurant", "name": "Pizza Palermo" }, "geometry": { "type": "Point", "coordinates": [ 20.3024363, 49.0570077 ] } },
{ "type": "Feature", "properties": { "osm_id": "2168895537", "code": 2303, "fclass": "cafe", "name": "Segafredo" }, "geometry": { "type": "Point", "coordinates": [ 20.2868843, 49.0575164 ] } },
{ "type": "Feature", "properties": { "osm_id": "2168895739", "code": 2301, "fclass": "restaurant", "name": "Nová Tatranka" }, "geometry": { "type": "Point", "coordinates": [ 20.2861609, 49.0557792 ] } },
{ "type": "Feature", "properties": { "osm_id": "2168895882", "code": 2305, "fclass": "bar", "name": "Rock Fabric" }, "geometry": { "type": "Point", "coordinates": [ 20.2860317, 49.0555398 ] } },
{ "type": "Feature", "properties": { "osm_id": "2168897391", "code": 2305, "fclass": "bar", "name": "Monaco" }, "geometry": { "type": "Point", "coordinates": [ 20.3003556, 49.0531753 ] } },
{ "type": "Feature", "properties": { "osm_id": "2168899858", "code": 2305, "fclass": "bar", "name": "Stodola" }, "geometry": { "type": "Point", "coordinates": [ 20.3046575, 49.0542816 ] } },
{ "type": "Feature", "properties": { "osm_id": "2168901740", "code": 2301, "fclass": "restaurant", "name": "Borsalino pizza" }, "geometry": { "type": "Point", "coordinates": [ 20.3047717, 49.0553926 ] } },
{ "type": "Feature", "properties": { "osm_id": "2169188042", "code": 2301, "fclass": "restaurant", "name": null }, "geometry": { "type": "Point", "coordinates": [ 20.3857722, 48.965066 ] } },
{ "type": "Feature", "properties": { "osm_id": "2188965897", "code": 2303, "fclass": "cafe", "name": "Kaviarnička Levoča" }, "geometry": { "type": "Point", "coordinates": [ 20.5905433, 49.0268005 ] } },
{ "type": "Feature", "properties": { "osm_id": "2189001132", "code": 2301, "fclass": "restaurant", "name": "Slovenka" }, "geometry": { "type": "Point", "coordinates": [ 20.5905016, 49.0276704 ] } },
{ "type": "Feature", "properties": { "osm_id": "2189007835", "code": 2301, "fclass": "restaurant", "name": "Pizzeria MamaMia" }, "geometry": { "type": "Point", "coordinates": [ 20.5896232, 49.0282367 ] } },
{ "type": "Feature", "properties": { "osm_id": "2201295496", "code": 2305, "fclass": "bar", "name": "Big Bar" }, "geometry": { "type": "Point", "coordinates": [ 20.587897, 49.0245978 ] } },
{ "type": "Feature", "properties": { "osm_id": "2201298150", "code": 2301, "fclass": "restaurant", "name": "Reštaurácia Bigoš" }, "geometry": { "type": "Point", "coordinates": [ 20.5878326, 49.0245275 ] } },
{ "type": "Feature", "properties": { "osm_id": "2201299485", "code": 2301, "fclass": "restaurant", "name": "Reštaurácia Biela pani" }, "geometry": { "type": "Point", "coordinates": [ 20.5880038, 49.0247615 ] } },
{ "type": "Feature", "properties": { "osm_id": "2201329545", "code": 2301, "fclass": "restaurant", "name": "Reštaurácia u Leva" }, "geometry": { "type": "Point", "coordinates": [ 20.5893603, 49.0254221 ] } },
{ "type": "Feature", "properties": { "osm_id": "2201332781", "code": 2301, "fclass": "restaurant", "name": "Reštaurácia Arkáda" }, "geometry": { "type": "Point", "coordinates": [ 20.5893432, 49.0252823 ] } },
{ "type": "Feature", "properties": { "osm_id": "2201346656", "code": 2301, "fclass": "restaurant", "name": "Kupečka bašte" }, "geometry": { "type": "Point", "coordinates": [ 20.5931305, 49.0261617 ] } },
{ "type": "Feature", "properties": { "osm_id": "2201578537", "code": 2303, "fclass": "cafe", "name": "Planéta Levoča" }, "geometry": { "type": "Point", "coordinates": [ 20.587189, 49.0247879 ] } },
{ "type": "Feature", "properties": { "osm_id": "2201580064", "code": 2518, "fclass": "beverages", "name": null }, "geometry": { "type": "Point", "coordinates": [ 20.5871031, 49.0246929 ] } },
{ "type": "Feature", "properties": { "osm_id": "2206398559", "code": 2301, "fclass": "restaurant", "name": "Cafe Razy" }, "geometry": { "type": "Point", "coordinates": [ 20.3041176, 49.0551814 ] } },
{ "type": "Feature", "properties": { "osm_id": "2206398560", "code": 2301, "fclass": "restaurant", "name": "Pod Vežou" }, "geometry": { "type": "Point", "coordinates": [ 20.3009193, 49.0548586 ] } },
{ "type": "Feature", "properties": { "osm_id": "2246310923", "code": 2301, "fclass": "restaurant", "name": "U Septima" }, "geometry": { "type": "Point", "coordinates": [ 20.279586, 49.0677813 ] } },
{ "type": "Feature", "properties": { "osm_id": "2246310928", "code": 2301, "fclass": "restaurant", "name": "Cin Cin" }, "geometry": { "type": "Point", "coordinates": [ 20.2791787, 49.0682435 ] } },
{ "type": "Feature", "properties": { "osm_id": "2246958684", "code": 2301, "fclass": "restaurant", "name": "Arena" }, "geometry": { "type": "Point", "coordinates": [ 20.2904946, 49.0464517 ] } },
{ "type": "Feature", "properties": { "osm_id": "2247000104", "code": 2305, "fclass": "bar", "name": "Galaxy bar" }, "geometry": { "type": "Point", "coordinates": [ 20.3007027, 49.0493873 ] } },
{ "type": "Feature", "properties": { "osm_id": "2247006853", "code": 2301, "fclass": "restaurant", "name": "U Janka" }, "geometry": { "type": "Point", "coordinates": [ 20.2989972, 49.0548808 ] } },
{ "type": "Feature", "properties": { "osm_id": "2247009784", "code": 2301, "fclass": "restaurant", "name": "Marco" }, "geometry": { "type": "Point", "coordinates": [ 20.2967177, 49.0567748 ] } },
{ "type": "Feature", "properties": { "osm_id": "2247031565", "code": 2303, "fclass": "cafe", "name": "Café La Fée" }, "geometry": { "type": "Point", "coordinates": [ 20.2988893, 49.0541375 ] } },
{ "type": "Feature", "properties": { "osm_id": "2247032370", "code": 2301, "fclass": "restaurant", "name": "Reduta celebration" }, "geometry": { "type": "Point", "coordinates": [ 20.2998066, 49.0546929 ] } },
{ "type": "Feature", "properties": { "osm_id": "2247033556", "code": 2301, "fclass": "restaurant", "name": "Zimný štadión" }, "geometry": { "type": "Point", "coordinates": [ 20.311131, 49.0602608 ] } },
{ "type": "Feature", "properties": { "osm_id": "2260470748", "code": 2303, "fclass": "cafe", "name": "Cafe 11" }, "geometry": { "type": "Point", "coordinates": [ 20.3055454, 49.0555666 ] } },
{ "type": "Feature", "properties": { "osm_id": "2267328541", "code": 2301, "fclass": "restaurant", "name": "Kaskáda" }, "geometry": { "type": "Point", "coordinates": [ 20.3276833, 49.0804227 ] } },
{ "type": "Feature", "properties": { "osm_id": "2267328542", "code": 2301, "fclass": "restaurant", "name": "Kaštieľ" }, "geometry": { "type": "Point", "coordinates": [ 20.3269496, 49.0811091 ] } },
{ "type": "Feature", "properties": { "osm_id": "2277126129", "code": 2301, "fclass": "restaurant", "name": "Koliba" }, "geometry": { "type": "Point", "coordinates": [ 20.2052198, 49.0548774 ] } },
{ "type": "Feature", "properties": { "osm_id": "2340265653", "code": 2301, "fclass": "restaurant", "name": null }, "geometry": { "type": "Point", "coordinates": [ 20.1988195, 49.058579 ] } },
{ "type": "Feature", "properties": { "osm_id": "2420825058", "code": 2301, "fclass": "restaurant", "name": "Egidius Brewery" }, "geometry": { "type": "Point", "coordinates": [ 20.3041869, 49.0555623 ] } },
{ "type": "Feature", "properties": { "osm_id": "2472047484", "code": 2301, "fclass": "restaurant", "name": "Pizza Timas" }, "geometry": { "type": "Point", "coordinates": [ 20.6589008, 48.9431725 ] } },
{ "type": "Feature", "properties": { "osm_id": "2536962237", "code": 2301, "fclass": "restaurant", "name": "Stodola" }, "geometry": { "type": "Point", "coordinates": [ 20.2631276, 49.0598987 ] } },
{ "type": "Feature", "properties": { "osm_id": "2594330188", "code": 2301, "fclass": "restaurant", "name": "U robotníka" }, "geometry": { "type": "Point", "coordinates": [ 20.9531949, 48.9714209 ] } },
{ "type": "Feature", "properties": { "osm_id": "2703045590", "code": 2302, "fclass": "fast_food", "name": "Bagetka" }, "geometry": { "type": "Point", "coordinates": [ 20.7956478, 48.9485475 ] } },
{ "type": "Feature", "properties": { "osm_id": "2741751999", "code": 2301, "fclass": "restaurant", "name": "Borovica" }, "geometry": { "type": "Point", "coordinates": [ 20.3442037, 48.8693339 ] } },
{ "type": "Feature", "properties": { "osm_id": "2741752007", "code": 2301, "fclass": "restaurant", "name": "Stratená" }, "geometry": { "type": "Point", "coordinates": [ 20.3440564, 48.8695639 ] } },
{ "type": "Feature", "properties": { "osm_id": "2791299596", "code": 2301, "fclass": "restaurant", "name": "Condor Club" }, "geometry": { "type": "Point", "coordinates": [ 20.8926298, 48.6995369 ] } },
{ "type": "Feature", "properties": { "osm_id": "2791299698", "code": 2301, "fclass": "restaurant", "name": "SKALA" }, "geometry": { "type": "Point", "coordinates": [ 20.9746804, 48.6837331 ] } },
{ "type": "Feature", "properties": { "osm_id": "2797042165", "code": 2301, "fclass": "restaurant", "name": "Stefan" }, "geometry": { "type": "Point", "coordinates": [ 20.5302454, 48.9544385 ] } },
{ "type": "Feature", "properties": { "osm_id": "2797228299", "code": 2303, "fclass": "cafe", "name": "Ascon Bar" }, "geometry": { "type": "Point", "coordinates": [ 20.4131108, 48.9772276 ] } },
{ "type": "Feature", "properties": { "osm_id": "2797228301", "code": 2301, "fclass": "restaurant", "name": "Raj" }, "geometry": { "type": "Point", "coordinates": [ 20.4088284, 48.9751702 ] } },
{ "type": "Feature", "properties": { "osm_id": "2833160207", "code": 2301, "fclass": "restaurant", "name": "Bistro R" }, "geometry": { "type": "Point", "coordinates": [ 20.5658699, 48.9483771 ] } },
{ "type": "Feature", "properties": { "osm_id": "2902466041", "code": 2305, "fclass": "bar", "name": "Urbársky klub" }, "geometry": { "type": "Point", "coordinates": [ 20.3591341, 48.9956313 ] } },
{ "type": "Feature", "properties": { "osm_id": "2932399846", "code": 2301, "fclass": "restaurant", "name": "Červený Mak" }, "geometry": { "type": "Point", "coordinates": [ 20.2782915, 49.0673855 ] } },
{ "type": "Feature", "properties": { "osm_id": "2938971359", "code": 2301, "fclass": "restaurant", "name": "Velická Izba" }, "geometry": { "type": "Point", "coordinates": [ 20.295189, 49.050108 ] } },
{ "type": "Feature", "properties": { "osm_id": "2954443833", "code": 2303, "fclass": "cafe", "name": "Zmrzlina Oáza" }, "geometry": { "type": "Point", "coordinates": [ 20.5900368, 49.0262229 ] } },
{ "type": "Feature", "properties": { "osm_id": "2961206075", "code": 2301, "fclass": "restaurant", "name": "HELION" }, "geometry": { "type": "Point", "coordinates": [ 20.8933656, 48.7001252 ] } },
{ "type": "Feature", "properties": { "osm_id": "2961583220", "code": 2301, "fclass": "restaurant", "name": "Starý mlyn" }, "geometry": { "type": "Point", "coordinates": [ 20.9765774, 48.6779362 ] } },
{ "type": "Feature", "properties": { "osm_id": "2962768604", "code": 2301, "fclass": "restaurant", "name": null }, "geometry": { "type": "Point", "coordinates": [ 20.7031871, 49.0854081 ] } },
{ "type": "Feature", "properties": { "osm_id": "2963874093", "code": 2302, "fclass": "fast_food", "name": "U Gazdu" }, "geometry": { "type": "Point", "coordinates": [ 20.2955592, 49.043681 ] } },
{ "type": "Feature", "properties": { "osm_id": "2963878582", "code": 2302, "fclass": "fast_food", "name": "Bistro" }, "geometry": { "type": "Point", "coordinates": [ 20.3035077, 49.0525286 ] } },
{ "type": "Feature", "properties": { "osm_id": "2963878583", "code": 2303, "fclass": "cafe", "name": "Crown Club" }, "geometry": { "type": "Point", "coordinates": [ 20.3039273, 49.0529251 ] } },
{ "type": "Feature", "properties": { "osm_id": "2963878584", "code": 2303, "fclass": "cafe", "name": "Live Cafe" }, "geometry": { "type": "Point", "coordinates": [ 20.3038275, 49.0530967 ] } },
{ "type": "Feature", "properties": { "osm_id": "2967521238", "code": 2305, "fclass": "bar", "name": "Cilli" }, "geometry": { "type": "Point", "coordinates": [ 20.8934328, 48.6993658 ] } },
{ "type": "Feature", "properties": { "osm_id": "2967521249", "code": 2518, "fclass": "beverages", "name": "Diskont Nápoje TOMI" }, "geometry": { "type": "Point", "coordinates": [ 20.8935611, 48.6992543 ] } },
{ "type": "Feature", "properties": { "osm_id": "2967521331", "code": 2303, "fclass": "cafe", "name": "GALERIE cafe" }, "geometry": { "type": "Point", "coordinates": [ 20.8921881, 48.7001557 ] } },
{ "type": "Feature", "properties": { "osm_id": "3027074863", "code": 2301, "fclass": "restaurant", "name": "Cafe Bar" }, "geometry": { "type": "Point", "coordinates": [ 20.3086564, 48.9874169 ] } },
{ "type": "Feature", "properties": { "osm_id": "3084845639", "code": 2518, "fclass": "beverages", "name": "MAX XL diskont" }, "geometry": { "type": "Point", "coordinates": [ 20.9742983, 48.6827228 ] } },
{ "type": "Feature", "properties": { "osm_id": "3150277330", "code": 2518, "fclass": "beverages", "name": "Vinotéka CIVITAS" }, "geometry": { "type": "Point", "coordinates": [ 20.3648797, 48.6583292 ] } },
{ "type": "Feature", "properties": { "osm_id": "3152403791", "code": 2305, "fclass": "bar", "name": "PizzaCaffe za kostolon" }, "geometry": { "type": "Point", "coordinates": [ 20.3635789, 48.6592542 ] } },
{ "type": "Feature", "properties": { "osm_id": "3189900254", "code": 2301, "fclass": "restaurant", "name": "Paríž" }, "geometry": { "type": "Point", "coordinates": [ 20.5708812, 48.9425781 ] } },
{ "type": "Feature", "properties": { "osm_id": "3189900256", "code": 2301, "fclass": "restaurant", "name": "Grillbar" }, "geometry": { "type": "Point", "coordinates": [ 20.5696469, 48.9428541 ] } },
{ "type": "Feature", "properties": { "osm_id": "3189900257", "code": 2301, "fclass": "restaurant", "name": "Mama Mia" }, "geometry": { "type": "Point", "coordinates": [ 20.5693626, 48.9429192 ] } },
{ "type": "Feature", "properties": { "osm_id": "3189900258", "code": 2301, "fclass": "restaurant", "name": "Na Korze" }, "geometry": { "type": "Point", "coordinates": [ 20.5639189, 48.9448187 ] } },
{ "type": "Feature", "properties": { "osm_id": "3189900259", "code": 2302, "fclass": "fast_food", "name": "SUN FOOD" }, "geometry": { "type": "Point", "coordinates": [ 20.567013, 48.9430323 ] } },
{ "type": "Feature", "properties": { "osm_id": "3189900662", "code": 2301, "fclass": "restaurant", "name": "Venuša" }, "geometry": { "type": "Point", "coordinates": [ 20.571752, 48.9423848 ] } },
{ "type": "Feature", "properties": { "osm_id": "3257427832", "code": 2301, "fclass": "restaurant", "name": "Hodovňa" }, "geometry": { "type": "Point", "coordinates": [ 20.3013242, 49.0557882 ] } },
{ "type": "Feature", "properties": { "osm_id": "3261714003", "code": 2303, "fclass": "cafe", "name": "J&R" }, "geometry": { "type": "Point", "coordinates": [ 20.3255308, 49.0819254 ] } },
{ "type": "Feature", "properties": { "osm_id": "3269790591", "code": 2301, "fclass": "restaurant", "name": "Caffé & pizza Lumaro" }, "geometry": { "type": "Point", "coordinates": [ 20.3811535, 48.8670396 ] } },
{ "type": "Feature", "properties": { "osm_id": "3269790597", "code": 2301, "fclass": "restaurant", "name": "Hostinec U Pelleho" }, "geometry": { "type": "Point", "coordinates": [ 20.3871741, 48.8631368 ] } },
{ "type": "Feature", "properties": { "osm_id": "3269790598", "code": 2302, "fclass": "fast_food", "name": "Iveta" }, "geometry": { "type": "Point", "coordinates": [ 20.3854484, 48.8637207 ] } },
{ "type": "Feature", "properties": { "osm_id": "3269790601", "code": 2301, "fclass": "restaurant", "name": "Pastierňa" }, "geometry": { "type": "Point", "coordinates": [ 20.3837296, 48.8683587 ] } },
{ "type": "Feature", "properties": { "osm_id": "3269790604", "code": 2301, "fclass": "restaurant", "name": "Priehrada" }, "geometry": { "type": "Point", "coordinates": [ 20.3861894, 48.8633393 ] } },
{ "type": "Feature", "properties": { "osm_id": "3269790640", "code": 2302, "fclass": "fast_food", "name": null }, "geometry": { "type": "Point", "coordinates": [ 20.3853905, 48.8637899 ] } },
{ "type": "Feature", "properties": { "osm_id": "3269790644", "code": 2302, "fclass": "fast_food", "name": "Bufet pod Kirou" }, "geometry": { "type": "Point", "coordinates": [ 20.387265, 48.8640439 ] } },
{ "type": "Feature", "properties": { "osm_id": "3322022029", "code": 2303, "fclass": "cafe", "name": "Fontána" }, "geometry": { "type": "Point", "coordinates": [ 20.2964086, 49.0460843 ] } },
{ "type": "Feature", "properties": { "osm_id": "3327435704", "code": 2303, "fclass": "cafe", "name": "ABSTRACT CAFÉ" }, "geometry": { "type": "Point", "coordinates": [ 20.5716904, 48.9438454 ] } },
{ "type": "Feature", "properties": { "osm_id": "3327435705", "code": 2303, "fclass": "cafe", "name": "ALCHÝMKA" }, "geometry": { "type": "Point", "coordinates": [ 20.5708018, 48.9439094 ] } },
{ "type": "Feature", "properties": { "osm_id": "3327435706", "code": 2301, "fclass": "restaurant", "name": "AMANI" }, "geometry": { "type": "Point", "coordinates": [ 20.567178, 48.943996 ] } },
{ "type": "Feature", "properties": { "osm_id": "3327435707", "code": 2303, "fclass": "cafe", "name": "AVE COFFEE" }, "geometry": { "type": "Point", "coordinates": [ 20.575424, 48.9355829 ] } },
{ "type": "Feature", "properties": { "osm_id": "3327435708", "code": 2302, "fclass": "fast_food", "name": "BAGETÁREŇ BAR" }, "geometry": { "type": "Point", "coordinates": [ 20.5699197, 48.9442997 ] } },
{ "type": "Feature", "properties": { "osm_id": "3327435709", "code": 2303, "fclass": "cafe", "name": "BARISTA CAFÉ" }, "geometry": { "type": "Point", "coordinates": [ 20.5699919, 48.9444142 ] } },
{ "type": "Feature", "properties": { "osm_id": "3327435711", "code": 2301, "fclass": "restaurant", "name": "BISTRO ASIA" }, "geometry": { "type": "Point", "coordinates": [ 20.5605191, 48.9455998 ] } },
{ "type": "Feature", "properties": { "osm_id": "3327435712", "code": 2302, "fclass": "fast_food", "name": "Babaloo" }, "geometry": { "type": "Point", "coordinates": [ 20.5657802, 48.9438703 ] } },
{ "type": "Feature", "properties": { "osm_id": "3327435713", "code": 2303, "fclass": "cafe", "name": "CAFFE BAR FITHOUSE" }, "geometry": { "type": "Point", "coordinates": [ 20.5514367, 48.9484507 ] } },
{ "type": "Feature", "properties": { "osm_id": "3327435715", "code": 2303, "fclass": "cafe", "name": "Bongiorno" }, "geometry": { "type": "Point", "coordinates": [ 20.5500422, 48.9477389 ] } },
{ "type": "Feature", "properties": { "osm_id": "3327435716", "code": 2303, "fclass": "cafe", "name": "DOLCE CAREZZA" }, "geometry": { "type": "Point", "coordinates": [ 20.5755554, 48.935668 ] } },
{ "type": "Feature", "properties": { "osm_id": "3327435717", "code": 2301, "fclass": "restaurant", "name": "FRENKY" }, "geometry": { "type": "Point", "coordinates": [ 20.567206, 48.943533 ] } },
{ "type": "Feature", "properties": { "osm_id": "3327435718", "code": 2301, "fclass": "restaurant", "name": "GARAGE" }, "geometry": { "type": "Point", "coordinates": [ 20.565891, 48.945004 ] } },
{ "type": "Feature", "properties": { "osm_id": "3327435719", "code": 2301, "fclass": "restaurant", "name": "GOLF PUB" }, "geometry": { "type": "Point", "coordinates": [ 20.5743996, 48.9352164 ] } },
{ "type": "Feature", "properties": { "osm_id": "3327435720", "code": 2302, "fclass": "fast_food", "name": "ITALIA PLANET" }, "geometry": { "type": "Point", "coordinates": [ 20.5762701, 48.935489 ] } },
{ "type": "Feature", "properties": { "osm_id": "3327435721", "code": 2301, "fclass": "restaurant", "name": "KAMENNÁ ZÁHRADA" }, "geometry": { "type": "Point", "coordinates": [ 20.5762371, 48.9355393 ] } },
{ "type": "Feature", "properties": { "osm_id": "3327435722", "code": 2302, "fclass": "fast_food", "name": "KEBAB HOUSE" }, "geometry": { "type": "Point", "coordinates": [ 20.5717488, 48.9435502 ] } },
{ "type": "Feature", "properties": { "osm_id": "3327435724", "code": 2301, "fclass": "restaurant", "name": "KRÁĽOV PRAMEŇ" }, "geometry": { "type": "Point", "coordinates": [ 20.5212942, 48.9045173 ] } },
{ "type": "Feature", "properties": { "osm_id": "3327435725", "code": 2303, "fclass": "cafe", "name": "Kubánska kaviareň CASA HAVANA" }, "geometry": { "type": "Point", "coordinates": [ 20.5587914, 48.9464267 ] } },
{ "type": "Feature", "properties": { "osm_id": "3327435726", "code": 2303, "fclass": "cafe", "name": "LOUNGE2LIVE CAFE&COCTAIL" }, "geometry": { "type": "Point", "coordinates": [ 20.569254, 48.944374 ] } },
{ "type": "Feature", "properties": { "osm_id": "3327435727", "code": 2301, "fclass": "restaurant", "name": "MATTONE" }, "geometry": { "type": "Point", "coordinates": [ 20.5625495, 48.9359883 ] } },
{ "type": "Feature", "properties": { "osm_id": "3327435728", "code": 2301, "fclass": "restaurant", "name": "METROPOL" }, "geometry": { "type": "Point", "coordinates": [ 20.55882, 48.9463795 ] } },
{ "type": "Feature", "properties": { "osm_id": "3327435729", "code": 2301, "fclass": "restaurant", "name": "MIER" }, "geometry": { "type": "Point", "coordinates": [ 20.5463572, 48.9459968 ] } },
{ "type": "Feature", "properties": { "osm_id": "3327435731", "code": 2301, "fclass": "restaurant", "name": "NATÁLKA" }, "geometry": { "type": "Point", "coordinates": [ 20.564996, 48.945196 ] } },
{ "type": "Feature", "properties": { "osm_id": "3327435732", "code": 2301, "fclass": "restaurant", "name": "NOSTALGIE" }, "geometry": { "type": "Point", "coordinates": [ 20.5681863, 48.9446056 ] } },
{ "type": "Feature", "properties": { "osm_id": "3327435733", "code": 2301, "fclass": "restaurant", "name": "OMBRE" }, "geometry": { "type": "Point", "coordinates": [ 20.5490356, 48.9444717 ] } },
{ "type": "Feature", "properties": { "osm_id": "3327435734", "code": 2301, "fclass": "restaurant", "name": "PALACINKA - CREPERIE" }, "geometry": { "type": "Point", "coordinates": [ 20.5696176, 48.942893 ] } },
{ "type": "Feature", "properties": { "osm_id": "3327435735", "code": 2302, "fclass": "fast_food", "name": "PANDA" }, "geometry": { "type": "Point", "coordinates": [ 20.5762857, 48.9354424 ] } },
{ "type": "Feature", "properties": { "osm_id": "3327435736", "code": 2303, "fclass": "cafe", "name": "PASÁŽ" }, "geometry": { "type": "Point", "coordinates": [ 20.5635449, 48.9446887 ] } },
{ "type": "Feature", "properties": { "osm_id": "3327435737", "code": 2301, "fclass": "restaurant", "name": "PINOCCHIO" }, "geometry": { "type": "Point", "coordinates": [ 20.5589481, 48.9379266 ] } },
{ "type": "Feature", "properties": { "osm_id": "3327435739", "code": 2301, "fclass": "restaurant", "name": "PREVEZA" }, "geometry": { "type": "Point", "coordinates": [ 20.565408, 48.9388793 ] } },
{ "type": "Feature", "properties": { "osm_id": "3327435740", "code": 2301, "fclass": "restaurant", "name": "Pizza Bomba" }, "geometry": { "type": "Point", "coordinates": [ 20.5663307, 48.9452506 ] } },
{ "type": "Feature", "properties": { "osm_id": "3327435741", "code": 2303, "fclass": "cafe", "name": "RED ROSE" }, "geometry": { "type": "Point", "coordinates": [ 20.576254, 48.9353993 ] } },
{ "type": "Feature", "properties": { "osm_id": "3327435743", "code": 2301, "fclass": "restaurant", "name": "RUDOLF" }, "geometry": { "type": "Point", "coordinates": [ 20.5480356, 48.9442909 ] } },
{ "type": "Feature", "properties": { "osm_id": "3327435744", "code": 2303, "fclass": "cafe", "name": "SCARLETT" }, "geometry": { "type": "Point", "coordinates": [ 20.5673413, 48.9434541 ] } },
{ "type": "Feature", "properties": { "osm_id": "3327435745", "code": 2301, "fclass": "restaurant", "name": "DUFART" }, "geometry": { "type": "Point", "coordinates": [ 20.5673583, 48.9451082 ] } },
{ "type": "Feature", "properties": { "osm_id": "3327435747", "code": 2301, "fclass": "restaurant", "name": "SONÁTA" }, "geometry": { "type": "Point", "coordinates": [ 20.5719342, 48.9427501 ] } },
{ "type": "Feature", "properties": { "osm_id": "3327435748", "code": 2301, "fclass": "restaurant", "name": "SOTTOPASSAGGIO" }, "geometry": { "type": "Point", "coordinates": [ 20.56573, 48.948205 ] } },
{ "type": "Feature", "properties": { "osm_id": "3327435749", "code": 2301, "fclass": "restaurant", "name": "SPIŠ" }, "geometry": { "type": "Point", "coordinates": [ 20.5674967, 48.9447181 ] } },
{ "type": "Feature", "properties": { "osm_id": "3327435750", "code": 2302, "fclass": "fast_food", "name": "Kebab-King" }, "geometry": { "type": "Point", "coordinates": [ 20.5669759, 48.9435781 ] } },
{ "type": "Feature", "properties": { "osm_id": "3327435751", "code": 2301, "fclass": "restaurant", "name": "STODOLA" }, "geometry": { "type": "Point", "coordinates": [ 20.5755548, 48.9351665 ] } },
{ "type": "Feature", "properties": { "osm_id": "3327435752", "code": 2303, "fclass": "cafe", "name": "SUN&MOON" }, "geometry": { "type": "Point", "coordinates": [ 20.5679423, 48.9432387 ] } },
{ "type": "Feature", "properties": { "osm_id": "3327435753", "code": 2302, "fclass": "fast_food", "name": "Studená kuchyňa LAHÔDKY" }, "geometry": { "type": "Point", "coordinates": [ 20.5619766, 48.9453991 ] } },
{ "type": "Feature", "properties": { "osm_id": "3327435754", "code": 2301, "fclass": "restaurant", "name": "TATRA" }, "geometry": { "type": "Point", "coordinates": [ 20.55988, 48.94807 ] } },
{ "type": "Feature", "properties": { "osm_id": "3327435755", "code": 2301, "fclass": "restaurant", "name": "VEGETARIÁN" }, "geometry": { "type": "Point", "coordinates": [ 20.5679019, 48.9431856 ] } },
{ "type": "Feature", "properties": { "osm_id": "3327435756", "code": 2301, "fclass": "restaurant", "name": "ZBROJNOŠ" }, "geometry": { "type": "Point", "coordinates": [ 20.5670298, 48.9448305 ] } },
{ "type": "Feature", "properties": { "osm_id": "3327435757", "code": 2303, "fclass": "cafe", "name": "eLAra" }, "geometry": { "type": "Point", "coordinates": [ 20.5657048, 48.9450313 ] } },
{ "type": "Feature", "properties": { "osm_id": "3327435758", "code": 2303, "fclass": "cafe", "name": "ČOKO ČOKO Čokoládovňa" }, "geometry": { "type": "Point", "coordinates": [ 20.5677624, 48.9446647 ] } },
{ "type": "Feature", "properties": { "osm_id": "3407465187", "code": 2303, "fclass": "cafe", "name": "Bistro Jokeľ" }, "geometry": { "type": "Point", "coordinates": [ 21.0051896, 48.7528988 ] } },
{ "type": "Feature", "properties": { "osm_id": "3428602547", "code": 2303, "fclass": "cafe", "name": "Espresso Bosorka" }, "geometry": { "type": "Point", "coordinates": [ 20.3649893, 48.6571019 ] } },
{ "type": "Feature", "properties": { "osm_id": "3500427107", "code": 2301, "fclass": "restaurant", "name": null }, "geometry": { "type": "Point", "coordinates": [ 20.4107363, 48.7739779 ] } },
{ "type": "Feature", "properties": { "osm_id": "3623786348", "code": 2303, "fclass": "cafe", "name": "Mimo Klub" }, "geometry": { "type": "Point", "coordinates": [ 20.4719372, 48.9622773 ] } },
{ "type": "Feature", "properties": { "osm_id": "3627647605", "code": 2303, "fclass": "cafe", "name": "Polux" }, "geometry": { "type": "Point", "coordinates": [ 20.5191072, 48.9582507 ] } },
{ "type": "Feature", "properties": { "osm_id": "3629657341", "code": 2301, "fclass": "restaurant", "name": "Vyšná" }, "geometry": { "type": "Point", "coordinates": [ 20.517008, 48.9556391 ] } },
{ "type": "Feature", "properties": { "osm_id": "3629657342", "code": 2301, "fclass": "restaurant", "name": "Wimbach" }, "geometry": { "type": "Point", "coordinates": [ 20.5319254, 48.9565259 ] } },
{ "type": "Feature", "properties": { "osm_id": "3665773389", "code": 2301, "fclass": "restaurant", "name": "Banská Klopačka" }, "geometry": { "type": "Point", "coordinates": [ 20.5499633, 48.8613035 ] } },
{ "type": "Feature", "properties": { "osm_id": "3698895148", "code": 2301, "fclass": "restaurant", "name": "Pizza" }, "geometry": { "type": "Point", "coordinates": [ 20.6212517, 48.8414391 ] } },
{ "type": "Feature", "properties": { "osm_id": "3707621872", "code": 2305, "fclass": "bar", "name": "TimeOut" }, "geometry": { "type": "Point", "coordinates": [ 20.5811637, 49.02477 ] } },
{ "type": "Feature", "properties": { "osm_id": "3745919327", "code": 2301, "fclass": "restaurant", "name": null }, "geometry": { "type": "Point", "coordinates": [ 20.5083476, 48.705709 ] } },
{ "type": "Feature", "properties": { "osm_id": "3745919332", "code": 2303, "fclass": "cafe", "name": null }, "geometry": { "type": "Point", "coordinates": [ 20.5104238, 48.7058893 ] } },
{ "type": "Feature", "properties": { "osm_id": "3796142116", "code": 2302, "fclass": "fast_food", "name": null }, "geometry": { "type": "Point", "coordinates": [ 20.8553795, 48.9127477 ] } },
{ "type": "Feature", "properties": { "osm_id": "3811050308", "code": 2302, "fclass": "fast_food", "name": "King Size Burger" }, "geometry": { "type": "Point", "coordinates": [ 20.5735442, 48.9429112 ] } },
{ "type": "Feature", "properties": { "osm_id": "4073561037", "code": 2301, "fclass": "restaurant", "name": "VEGETARIAN 3" }, "geometry": { "type": "Point", "coordinates": [ 20.5880543, 49.0247437 ] } },
{ "type": "Feature", "properties": { "osm_id": "4167292869", "code": 2302, "fclass": "fast_food", "name": "Bufet Letanovský mlyn" }, "geometry": { "type": "Point", "coordinates": [ 20.4389065, 48.9535678 ] } },
{ "type": "Feature", "properties": { "osm_id": "4181862989", "code": 2518, "fclass": "beverages", "name": "Ppivoteka" }, "geometry": { "type": "Point", "coordinates": [ 20.2975465, 49.0546357 ] } },
{ "type": "Feature", "properties": { "osm_id": "4184887763", "code": 2305, "fclass": "bar", "name": "Dobre Časy" }, "geometry": { "type": "Point", "coordinates": [ 20.3065224, 49.0556544 ] } },
{ "type": "Feature", "properties": { "osm_id": "4206889997", "code": 2301, "fclass": "restaurant", "name": "Pizzeria" }, "geometry": { "type": "Point", "coordinates": [ 20.3580786, 48.8214084 ] } },
{ "type": "Feature", "properties": { "osm_id": "4218876102", "code": 2301, "fclass": "restaurant", "name": "Pizza Fonzy" }, "geometry": { "type": "Point", "coordinates": [ 20.4128974, 48.9763713 ] } },
{ "type": "Feature", "properties": { "osm_id": "4291425233", "code": 2302, "fclass": "fast_food", "name": null }, "geometry": { "type": "Point", "coordinates": [ 20.2059967, 49.0549837 ] } },
{ "type": "Feature", "properties": { "osm_id": "4292822689", "code": 2303, "fclass": "cafe", "name": "FACTORY CAFE & BAR" }, "geometry": { "type": "Point", "coordinates": [ 20.2821765, 49.0473672 ] } },
{ "type": "Feature", "properties": { "osm_id": "4301256173", "code": 2518, "fclass": "beverages", "name": null }, "geometry": { "type": "Point", "coordinates": [ 20.3649794, 48.6583286 ] } },
{ "type": "Feature", "properties": { "osm_id": "4314966959", "code": 2301, "fclass": "restaurant", "name": "Restart Burger" }, "geometry": { "type": "Point", "coordinates": [ 20.2810884, 49.0682058 ] } },
{ "type": "Feature", "properties": { "osm_id": "4331031496", "code": 2301, "fclass": "restaurant", "name": "Long Xiang" }, "geometry": { "type": "Point", "coordinates": [ 20.3059131, 49.0560233 ] } },
{ "type": "Feature", "properties": { "osm_id": "4343145891", "code": 2305, "fclass": "bar", "name": "Serpentíny" }, "geometry": { "type": "Point", "coordinates": [ 20.5825489, 49.0260744 ] } },
{ "type": "Feature", "properties": { "osm_id": "4380693390", "code": 2303, "fclass": "cafe", "name": "La Got caffé" }, "geometry": { "type": "Point", "coordinates": [ 20.5603511, 48.9485207 ] } },
{ "type": "Feature", "properties": { "osm_id": "4391472313", "code": 2305, "fclass": "bar", "name": "Pod Javorom" }, "geometry": { "type": "Point", "coordinates": [ 20.9072392, 48.9471521 ] } },
{ "type": "Feature", "properties": { "osm_id": "4454964814", "code": 2303, "fclass": "cafe", "name": null }, "geometry": { "type": "Point", "coordinates": [ 20.3000821, 49.0484545 ] } },
{ "type": "Feature", "properties": { "osm_id": "4454964816", "code": 2518, "fclass": "beverages", "name": "1. day" }, "geometry": { "type": "Point", "coordinates": [ 20.2968798, 49.0459634 ] } },
{ "type": "Feature", "properties": { "osm_id": "4468994519", "code": 2301, "fclass": "restaurant", "name": "U Marienky" }, "geometry": { "type": "Point", "coordinates": [ 20.3436086, 49.0323933 ] } },
{ "type": "Feature", "properties": { "osm_id": "4493531590", "code": 2301, "fclass": "restaurant", "name": "Pizzerie" }, "geometry": { "type": "Point", "coordinates": [ 20.3025853, 49.043437 ] } },
{ "type": "Feature", "properties": { "osm_id": "4498248539", "code": 2301, "fclass": "restaurant", "name": null }, "geometry": { "type": "Point", "coordinates": [ 20.2700556, 48.9174901 ] } },
{ "type": "Feature", "properties": { "osm_id": "4498845805", "code": 2301, "fclass": "restaurant", "name": null }, "geometry": { "type": "Point", "coordinates": [ 20.5081857, 48.7037909 ] } },
{ "type": "Feature", "properties": { "osm_id": "4558318689", "code": 2305, "fclass": "bar", "name": "studnička chmelova" }, "geometry": { "type": "Point", "coordinates": [ 20.9477659, 49.037148 ] } },
{ "type": "Feature", "properties": { "osm_id": "4590573574", "code": 2301, "fclass": "restaurant", "name": "Izabela" }, "geometry": { "type": "Point", "coordinates": [ 20.3082999, 49.0551319 ] } },
{ "type": "Feature", "properties": { "osm_id": "4590578697", "code": 2302, "fclass": "fast_food", "name": "Burger&Pizza" }, "geometry": { "type": "Point", "coordinates": [ 20.3042613, 49.0555728 ] } },
{ "type": "Feature", "properties": { "osm_id": "4590594348", "code": 2301, "fclass": "restaurant", "name": "East Point" }, "geometry": { "type": "Point", "coordinates": [ 20.3253502, 49.0451236 ] } },
{ "type": "Feature", "properties": { "osm_id": "4590631633", "code": 2303, "fclass": "cafe", "name": "Cukráreň Oáza" }, "geometry": { "type": "Point", "coordinates": [ 20.5890781, 49.0250776 ] } },
{ "type": "Feature", "properties": { "osm_id": "4590631679", "code": 2303, "fclass": "cafe", "name": "Cukráreň" }, "geometry": { "type": "Point", "coordinates": [ 20.588318, 49.0263096 ] } },
{ "type": "Feature", "properties": { "osm_id": "4613962386", "code": 2303, "fclass": "cafe", "name": "Café M" }, "geometry": { "type": "Point", "coordinates": [ 20.3076689, 49.0549722 ] } },
{ "type": "Feature", "properties": { "osm_id": "4613962388", "code": 2303, "fclass": "cafe", "name": "Chicago" }, "geometry": { "type": "Point", "coordinates": [ 20.3021874, 49.0546964 ] } },
{ "type": "Feature", "properties": { "osm_id": "4613981580", "code": 2302, "fclass": "fast_food", "name": "Smilefood" }, "geometry": { "type": "Point", "coordinates": [ 20.296987, 49.0459364 ] } },
{ "type": "Feature", "properties": { "osm_id": "4637300370", "code": 2301, "fclass": "restaurant", "name": "U Jozefa Janusa" }, "geometry": { "type": "Point", "coordinates": [ 20.5878022, 49.0269804 ] } },
{ "type": "Feature", "properties": { "osm_id": "4637300376", "code": 2303, "fclass": "cafe", "name": "Teatro Café" }, "geometry": { "type": "Point", "coordinates": [ 20.588906, 49.0269695 ] } },
{ "type": "Feature", "properties": { "osm_id": "4637556265", "code": 2303, "fclass": "cafe", "name": "Levočská kaviareň" }, "geometry": { "type": "Point", "coordinates": [ 20.5922627, 49.0274361 ] } },
{ "type": "Feature", "properties": { "osm_id": "4716168559", "code": 2302, "fclass": "fast_food", "name": "Bufet Vlakovka" }, "geometry": { "type": "Point", "coordinates": [ 20.560846, 48.9501732 ] } },
{ "type": "Feature", "properties": { "osm_id": "4755282389", "code": 2301, "fclass": "restaurant", "name": "Bistro pod vežou" }, "geometry": { "type": "Point", "coordinates": [ 20.3018065, 49.0552623 ] } },
{ "type": "Feature", "properties": { "osm_id": "4755282390", "code": 2303, "fclass": "cafe", "name": "Brick" }, "geometry": { "type": "Point", "coordinates": [ 20.3007503, 49.0547321 ] } },
{ "type": "Feature", "properties": { "osm_id": "4755282394", "code": 2303, "fclass": "cafe", "name": "Caffé Florian" }, "geometry": { "type": "Point", "coordinates": [ 20.3015316, 49.0552298 ] } },
{ "type": "Feature", "properties": { "osm_id": "4755282395", "code": 2303, "fclass": "cafe", "name": "Caffé Trieste" }, "geometry": { "type": "Point", "coordinates": [ 20.301274, 49.0547209 ] } },
{ "type": "Feature", "properties": { "osm_id": "4755282397", "code": 2301, "fclass": "restaurant", "name": "Cukráreň Tropicana" }, "geometry": { "type": "Point", "coordinates": [ 20.3031064, 49.0553928 ] } },
{ "type": "Feature", "properties": { "osm_id": "4755282403", "code": 2301, "fclass": "restaurant", "name": "Hua Li Gong" }, "geometry": { "type": "Point", "coordinates": [ 20.3011735, 49.0555638 ] } },
{ "type": "Feature", "properties": { "osm_id": "4755282415", "code": 2301, "fclass": "restaurant", "name": "Palacinkáreň u Priateľa" }, "geometry": { "type": "Point", "coordinates": [ 20.3012027, 49.0554647 ] } },
{ "type": "Feature", "properties": { "osm_id": "4755282419", "code": 2303, "fclass": "cafe", "name": "Smile Café" }, "geometry": { "type": "Point", "coordinates": [ 20.3021438, 49.0534545 ] } },
{ "type": "Feature", "properties": { "osm_id": "4755284740", "code": 2301, "fclass": "restaurant", "name": "Ázijské bistro" }, "geometry": { "type": "Point", "coordinates": [ 20.3023952, 49.0553291 ] } },
{ "type": "Feature", "properties": { "osm_id": "4974340961", "code": 2305, "fclass": "bar", "name": null }, "geometry": { "type": "Point", "coordinates": [ 20.1982369, 49.0613434 ] } },
{ "type": "Feature", "properties": { "osm_id": "4991790313", "code": 2302, "fclass": "fast_food", "name": null }, "geometry": { "type": "Point", "coordinates": [ 20.3931262, 48.9632501 ] } },
{ "type": "Feature", "properties": { "osm_id": "5003835534", "code": 2302, "fclass": "fast_food", "name": "Borsalino" }, "geometry": { "type": "Point", "coordinates": [ 20.2968872, 49.0565337 ] } },
{ "type": "Feature", "properties": { "osm_id": "5011618326", "code": 2301, "fclass": "restaurant", "name": null }, "geometry": { "type": "Point", "coordinates": [ 20.533659, 48.6616595 ] } },
{ "type": "Feature", "properties": { "osm_id": "5011618327", "code": 2301, "fclass": "restaurant", "name": "Čierny orol" }, "geometry": { "type": "Point", "coordinates": [ 20.5342287, 48.6621345 ] } },
{ "type": "Feature", "properties": { "osm_id": "5011618328", "code": 2302, "fclass": "fast_food", "name": "Royal Kebab" }, "geometry": { "type": "Point", "coordinates": [ 20.5344879, 48.6623397 ] } },
{ "type": "Feature", "properties": { "osm_id": "5011618329", "code": 2303, "fclass": "cafe", "name": "Belissimo" }, "geometry": { "type": "Point", "coordinates": [ 20.5332293, 48.6628347 ] } },
{ "type": "Feature", "properties": { "osm_id": "5011618333", "code": 2301, "fclass": "restaurant", "name": "Tri ruže" }, "geometry": { "type": "Point", "coordinates": [ 20.5320506, 48.6622114 ] } },
{ "type": "Feature", "properties": { "osm_id": "5026370193", "code": 2301, "fclass": "restaurant", "name": "Pizzeria JOKER" }, "geometry": { "type": "Point", "coordinates": [ 20.9975938, 48.8763738 ] } },
{ "type": "Feature", "properties": { "osm_id": "5204317706", "code": 2301, "fclass": "restaurant", "name": "Poľovník pod hôru" }, "geometry": { "type": "Point", "coordinates": [ 20.9409741, 48.9242158 ] } },
{ "type": "Feature", "properties": { "osm_id": "5204317707", "code": 2301, "fclass": "restaurant", "name": null }, "geometry": { "type": "Point", "coordinates": [ 20.9423205, 48.9259341 ] } },
{ "type": "Feature", "properties": { "osm_id": "5430870875", "code": 2301, "fclass": "restaurant", "name": "Emporio casino pizza pub" }, "geometry": { "type": "Point", "coordinates": [ 20.9460601, 48.8605028 ] } },
{ "type": "Feature", "properties": { "osm_id": "5457349370", "code": 2301, "fclass": "restaurant", "name": "Buntavar" }, "geometry": { "type": "Point", "coordinates": [ 20.2110321, 49.0562238 ] } },
{ "type": "Feature", "properties": { "osm_id": "5459611383", "code": 2301, "fclass": "restaurant", "name": "Pizzeria Sorriso" }, "geometry": { "type": "Point", "coordinates": [ 20.1985662, 49.0567068 ] } },
{ "type": "Feature", "properties": { "osm_id": "5469832921", "code": 2303, "fclass": "cafe", "name": "Espresso Marka" }, "geometry": { "type": "Point", "coordinates": [ 20.3488228, 48.6917902 ] } },
{ "type": "Feature", "properties": { "osm_id": "5476080523", "code": 2301, "fclass": "restaurant", "name": "Gasthof LEVANDA" }, "geometry": { "type": "Point", "coordinates": [ 20.8936274, 48.699231 ] } },
{ "type": "Feature", "properties": { "osm_id": "5830607026", "code": 2301, "fclass": "restaurant", "name": "Studničky" }, "geometry": { "type": "Point", "coordinates": [ 20.2610555, 48.9240061 ] } },
{ "type": "Feature", "properties": { "osm_id": "5848988457", "code": 2301, "fclass": "restaurant", "name": "Restaurant U Hudáka" }, "geometry": { "type": "Point", "coordinates": [ 20.4070288, 48.9732796 ] } },
{ "type": "Feature", "properties": { "osm_id": "6066170692", "code": 2303, "fclass": "cafe", "name": null }, "geometry": { "type": "Point", "coordinates": [ 20.9407122, 48.8585097 ] } },
{ "type": "Feature", "properties": { "osm_id": "6066170693", "code": 2305, "fclass": "bar", "name": "K33" }, "geometry": { "type": "Point", "coordinates": [ 20.9414203, 48.8580138 ] } },
{ "type": "Feature", "properties": { "osm_id": "6077662333", "code": 2301, "fclass": "restaurant", "name": "Jedáleň okresného úradu" }, "geometry": { "type": "Point", "coordinates": [ 20.9343693, 48.8518596 ] } },
{ "type": "Feature", "properties": { "osm_id": "6193478037", "code": 2301, "fclass": "restaurant", "name": "Horáreň" }, "geometry": { "type": "Point", "coordinates": [ 20.3712876, 48.8593496 ] } },
{ "type": "Feature", "properties": { "osm_id": "6193478039", "code": 2301, "fclass": "restaurant", "name": "Hotel RAJ" }, "geometry": { "type": "Point", "coordinates": [ 20.3721902, 48.8585246 ] } },
{ "type": "Feature", "properties": { "osm_id": "6225868830", "code": 2302, "fclass": "fast_food", "name": null }, "geometry": { "type": "Point", "coordinates": [ 20.3965842, 48.8653425 ] } },
{ "type": "Feature", "properties": { "osm_id": "6225868843", "code": 2301, "fclass": "restaurant", "name": "Hotel Mlynky" }, "geometry": { "type": "Point", "coordinates": [ 20.3970087, 48.8673402 ] } },
{ "type": "Feature", "properties": { "osm_id": "6225868859", "code": 2302, "fclass": "fast_food", "name": "Školská jedáleň" }, "geometry": { "type": "Point", "coordinates": [ 20.3980225, 48.8688699 ] } },
{ "type": "Feature", "properties": { "osm_id": "6238872242", "code": 2303, "fclass": "cafe", "name": "Cukráreň" }, "geometry": { "type": "Point", "coordinates": [ 21.0147348, 48.8934893 ] } },
{ "type": "Feature", "properties": { "osm_id": "6238872250", "code": 2301, "fclass": "restaurant", "name": "Pivnica pub" }, "geometry": { "type": "Point", "coordinates": [ 21.0143419, 48.8936683 ] } },
{ "type": "Feature", "properties": { "osm_id": "6238872301", "code": 2302, "fclass": "fast_food", "name": "Občerstvenie Snack" }, "geometry": { "type": "Point", "coordinates": [ 21.0135546, 48.8942581 ] } },
{ "type": "Feature", "properties": { "osm_id": "6238872302", "code": 2302, "fclass": "fast_food", "name": "Bistro fajnotka" }, "geometry": { "type": "Point", "coordinates": [ 21.0134071, 48.8943075 ] } },
{ "type": "Feature", "properties": { "osm_id": "6352971883", "code": 2303, "fclass": "cafe", "name": "Cukráreň Domenico" }, "geometry": { "type": "Point", "coordinates": [ 20.2834019, 49.0658635 ] } },
{ "type": "Feature", "properties": { "osm_id": "6353872744", "code": 2303, "fclass": "cafe", "name": "Oto&Oto Caffe" }, "geometry": { "type": "Point", "coordinates": [ 20.2801988, 49.0668477 ] } },
{ "type": "Feature", "properties": { "osm_id": "6586300676", "code": 2301, "fclass": "restaurant", "name": "Jedáleň Ako doma" }, "geometry": { "type": "Point", "coordinates": [ 20.5322278, 48.6607619 ] } },
{ "type": "Feature", "properties": { "osm_id": "6694811746", "code": 2301, "fclass": "restaurant", "name": "U Spišských bratríkov" }, "geometry": { "type": "Point", "coordinates": [ 20.7544479, 48.9973559 ] } },
{ "type": "Feature", "properties": { "osm_id": "6700940616", "code": 2302, "fclass": "fast_food", "name": "Bongiorno Pizzeria" }, "geometry": { "type": "Point", "coordinates": [ 20.2980384, 49.0538809 ] } },
{ "type": "Feature", "properties": { "osm_id": "6700940623", "code": 2303, "fclass": "cafe", "name": "Foxford" }, "geometry": { "type": "Point", "coordinates": [ 20.2980571, 49.05395 ] } },
{ "type": "Feature", "properties": { "osm_id": "6700940632", "code": 2303, "fclass": "cafe", "name": "Segafredo" }, "geometry": { "type": "Point", "coordinates": [ 20.2984045, 49.0534044 ] } },
{ "type": "Feature", "properties": { "osm_id": "6700940639", "code": 2306, "fclass": "food_court", "name": null }, "geometry": { "type": "Point", "coordinates": [ 20.2980223, 49.0538017 ] } },
{ "type": "Feature", "properties": { "osm_id": "6724863885", "code": 2518, "fclass": "beverages", "name": "Diskonto -trafika" }, "geometry": { "type": "Point", "coordinates": [ 20.5718735, 48.9423612 ] } },
{ "type": "Feature", "properties": { "osm_id": "6781309834", "code": 2306, "fclass": "food_court", "name": null }, "geometry": { "type": "Point", "coordinates": [ 20.4235142, 49.0836721 ] } },
{ "type": "Feature", "properties": { "osm_id": "6781309862", "code": 2306, "fclass": "food_court", "name": "Koliba" }, "geometry": { "type": "Point", "coordinates": [ 20.4247199, 49.0823633 ] } },
{ "type": "Feature", "properties": { "osm_id": "6822074051", "code": 2301, "fclass": "restaurant", "name": "Barónka Bistrot" }, "geometry": { "type": "Point", "coordinates": [ 20.5059247, 48.7012374 ] } },
{ "type": "Feature", "properties": { "osm_id": "6844688465", "code": 2305, "fclass": "bar", "name": "Espresso Zabarik" }, "geometry": { "type": "Point", "coordinates": [ 20.5086976, 48.7044814 ] } },
{ "type": "Feature", "properties": { "osm_id": "7518647844", "code": 2301, "fclass": "restaurant", "name": "Erika" }, "geometry": { "type": "Point", "coordinates": [ 20.9724444, 48.7809157 ] } },
{ "type": "Feature", "properties": { "osm_id": "7647633063", "code": 2301, "fclass": "restaurant", "name": "Kalibra" }, "geometry": { "type": "Point", "coordinates": [ 20.2952644, 49.060266 ] } },
{ "type": "Feature", "properties": { "osm_id": "7647633064", "code": 2518, "fclass": "beverages", "name": null }, "geometry": { "type": "Point", "coordinates": [ 20.294504, 49.0596799 ] } },
{ "type": "Feature", "properties": { "osm_id": "7647633065", "code": 2303, "fclass": "cafe", "name": "Mirage" }, "geometry": { "type": "Point", "coordinates": [ 20.2936444, 49.059338 ] } },
{ "type": "Feature", "properties": { "osm_id": "7725131756", "code": 2303, "fclass": "cafe", "name": "PIROŠKA" }, "geometry": { "type": "Point", "coordinates": [ 20.5335197, 48.6627254 ] } },
{ "type": "Feature", "properties": { "osm_id": "7744860520", "code": 2302, "fclass": "fast_food", "name": "Lángoš u Zity" }, "geometry": { "type": "Point", "coordinates": [ 20.5359323, 48.6602762 ] } },
{ "type": "Feature", "properties": { "osm_id": "7780666457", "code": 2303, "fclass": "cafe", "name": "PARKAFE" }, "geometry": { "type": "Point", "coordinates": [ 20.527411, 48.6629482 ] } },
{ "type": "Feature", "properties": { "osm_id": "7821877805", "code": 2301, "fclass": "restaurant", "name": "Reštaurácia Dreveník" }, "geometry": { "type": "Point", "coordinates": [ 20.7546827, 48.9997119 ] } },
{ "type": "Feature", "properties": { "osm_id": "7834558685", "code": 2305, "fclass": "bar", "name": "Hostinec Hubert" }, "geometry": { "type": "Point", "coordinates": [ 20.2861201, 48.711604 ] } },
{ "type": "Feature", "properties": { "osm_id": "7835666328", "code": 2303, "fclass": "cafe", "name": "Cat Café Club" }, "geometry": { "type": "Point", "coordinates": [ 20.280468, 49.068373 ] } },
{ "type": "Feature", "properties": { "osm_id": "7840056085", "code": 2301, "fclass": "restaurant", "name": "Poniklec" }, "geometry": { "type": "Point", "coordinates": [ 20.3852821, 48.9648229 ] } },
{ "type": "Feature", "properties": { "osm_id": "7883292447", "code": 2303, "fclass": "cafe", "name": "Morning Smile CAFÉ" }, "geometry": { "type": "Point", "coordinates": [ 20.9361801, 48.8532103 ] } },
{ "type": "Feature", "properties": { "osm_id": "7894462790", "code": 2303, "fclass": "cafe", "name": "Rajský dvor" }, "geometry": { "type": "Point", "coordinates": [ 20.5327257, 48.6633627 ] } },
{ "type": "Feature", "properties": { "osm_id": "7928058252", "code": 2302, "fclass": "fast_food", "name": "First Class Pancakes" }, "geometry": { "type": "Point", "coordinates": [ 20.5323737, 48.6612408 ] } },
{ "type": "Feature", "properties": { "osm_id": "7932198501", "code": 2301, "fclass": "restaurant", "name": "Pizza Micio" }, "geometry": { "type": "Point", "coordinates": [ 20.5269268, 48.6599143 ] } },
{ "type": "Feature", "properties": { "osm_id": "7932198503", "code": 2302, "fclass": "fast_food", "name": "Raňajkáreň KUBO" }, "geometry": { "type": "Point", "coordinates": [ 20.527761, 48.6612936 ] } },
{ "type": "Feature", "properties": { "osm_id": "7944892985", "code": 2518, "fclass": "beverages", "name": "Pivovar Buchvald" }, "geometry": { "type": "Point", "coordinates": [ 20.5794065, 48.9278484 ] } },
{ "type": "Feature", "properties": { "osm_id": "7945005285", "code": 2305, "fclass": "bar", "name": "Buchvaldhaus" }, "geometry": { "type": "Point", "coordinates": [ 20.5691308, 48.9443855 ] } },
{ "type": "Feature", "properties": { "osm_id": "7977159320", "code": 2301, "fclass": "restaurant", "name": "Mamut Pub" }, "geometry": { "type": "Point", "coordinates": [ 20.2935396, 49.0489997 ] } },
{ "type": "Feature", "properties": { "osm_id": "7996921405", "code": 2302, "fclass": "fast_food", "name": "Thai Food" }, "geometry": { "type": "Point", "coordinates": [ 20.2908552, 49.0493053 ] } },
{ "type": "Feature", "properties": { "osm_id": "7996921406", "code": 2302, "fclass": "fast_food", "name": "Trhané mäsko" }, "geometry": { "type": "Point", "coordinates": [ 20.2909008, 49.0492473 ] } },
{ "type": "Feature", "properties": { "osm_id": "7996921407", "code": 2303, "fclass": "cafe", "name": "PREZO" }, "geometry": { "type": "Point", "coordinates": [ 20.29185, 49.0489765 ] } },
{ "type": "Feature", "properties": { "osm_id": "7996921409", "code": 2302, "fclass": "fast_food", "name": "Fajn Express food" }, "geometry": { "type": "Point", "coordinates": [ 20.2907856, 49.0494019 ] } },
{ "type": "Feature", "properties": { "osm_id": "8082727490", "code": 2305, "fclass": "bar", "name": "Bar Vanesska" }, "geometry": { "type": "Point", "coordinates": [ 20.415685, 48.724788 ] } },
{ "type": "Feature", "properties": { "osm_id": "8104341166", "code": 2303, "fclass": "cafe", "name": "Admiral Cafe" }, "geometry": { "type": "Point", "coordinates": [ 20.5512421, 48.9471806 ] } },
{ "type": "Feature", "properties": { "osm_id": "8124007395", "code": 2301, "fclass": "restaurant", "name": "Slávia" }, "geometry": { "type": "Point", "coordinates": [ 20.2991344, 49.0590941 ] } },
{ "type": "Feature", "properties": { "osm_id": "8194926644", "code": 2301, "fclass": "restaurant", "name": "Citybowling reštaurácia" }, "geometry": { "type": "Point", "coordinates": [ 20.290437, 49.0497362 ] } },
{ "type": "Feature", "properties": { "osm_id": "8194926645", "code": 2301, "fclass": "restaurant", "name": "Bôrik Stodola Max" }, "geometry": { "type": "Point", "coordinates": [ 20.2910585, 49.050319 ] } },
{ "type": "Feature", "properties": { "osm_id": "8196745642", "code": 2302, "fclass": "fast_food", "name": "Fornetti" }, "geometry": { "type": "Point", "coordinates": [ 20.2905623, 49.0492609 ] } },
{ "type": "Feature", "properties": { "osm_id": "8196745646", "code": 2302, "fclass": "fast_food", "name": "Mc burger" }, "geometry": { "type": "Point", "coordinates": [ 20.29082, 49.0493557 ] } },
{ "type": "Feature", "properties": { "osm_id": "8321602167", "code": 2303, "fclass": "cafe", "name": "Groteska art caffe" }, "geometry": { "type": "Point", "coordinates": [ 20.2953261, 49.0542495 ] } },
{ "type": "Feature", "properties": { "osm_id": "8327202151", "code": 2302, "fclass": "fast_food", "name": null }, "geometry": { "type": "Point", "coordinates": [ 20.2825454, 49.0539349 ] } },
{ "type": "Feature", "properties": { "osm_id": "8328321472", "code": 2301, "fclass": "restaurant", "name": "Vietown" }, "geometry": { "type": "Point", "coordinates": [ 20.5318568, 48.6605822 ] } },
{ "type": "Feature", "properties": { "osm_id": "8328321479", "code": 2302, "fclass": "fast_food", "name": "Fast Food u Ruži" }, "geometry": { "type": "Point", "coordinates": [ 20.5331234, 48.659463 ] } },
{ "type": "Feature", "properties": { "osm_id": "8361530525", "code": 2302, "fclass": "fast_food", "name": "Fajn Express food" }, "geometry": { "type": "Point", "coordinates": [ 20.297948, 49.0536871 ] } },
{ "type": "Feature", "properties": { "osm_id": "8361530526", "code": 2302, "fclass": "fast_food", "name": "Saigon" }, "geometry": { "type": "Point", "coordinates": [ 20.2979077, 49.0537108 ] } },
{ "type": "Feature", "properties": { "osm_id": "8361530527", "code": 2302, "fclass": "fast_food", "name": "Mayo's food" }, "geometry": { "type": "Point", "coordinates": [ 20.2978702, 49.0537336 ] } },
{ "type": "Feature", "properties": { "osm_id": "8361530528", "code": 2301, "fclass": "restaurant", "name": "Steak & Pizza House" }, "geometry": { "type": "Point", "coordinates": [ 20.2982068, 49.0538655 ] } },
{ "type": "Feature", "properties": { "osm_id": "8365376849", "code": 2301, "fclass": "restaurant", "name": "GasTel" }, "geometry": { "type": "Point", "coordinates": [ 20.5358291, 48.6629721 ] } },
{ "type": "Feature", "properties": { "osm_id": "8521097254", "code": 2302, "fclass": "fast_food", "name": null }, "geometry": { "type": "Point", "coordinates": [ 20.2990377, 49.0336842 ] } },
{ "type": "Feature", "properties": { "osm_id": "8710495024", "code": 2303, "fclass": "cafe", "name": "Leutschau Cafe/Bar" }, "geometry": { "type": "Point", "coordinates": [ 20.5898905, 49.0260856 ] } },
{ "type": "Feature", "properties": { "osm_id": "8712571111", "code": 2302, "fclass": "fast_food", "name": "Bagatéria RoAN" }, "geometry": { "type": "Point", "coordinates": [ 20.5343109, 48.6622059 ] } }
]
}
